ID,name,toponymName,adminName4,adminName2,adminName1,lat,lng,type
2801150,'s-Gravenbrakel,Braine-le-Comte,Braine-le-Comte,Hainaut Province,Wallonia,50.60979,4.14658,Commune
2786796,'s Gravenjansdijk,'s Gravenjansdijk,Assenede,East Flanders Province,Flanders,51.25,3.63333,Section/lieu-dit
2786796,'s Gravenjansdyk,'s Gravenjansdijk,Assenede,East Flanders Province,Flanders,51.25,3.63333,Section/lieu-dit
2786795,'s Graven Kerselaar,'s Graven Kerselaar,Haaltert,East Flanders Province,Flanders,50.9,3.98333,Section/lieu-dit
2786794,'s Gravenstafel,'s Gravenstafel,Zonnebeke,West Flanders Province,Flanders,50.89304,2.98533,Section/lieu-dit
2786794,'s Gravenstaffel,'s Gravenstafel,Zonnebeke,West Flanders Province,Flanders,50.89304,2.98533,Section/lieu-dit
2798058,'s Gravenvoeren,'s-Gravenvoeren,Voeren,Limburg Province,Flanders,50.75872,5.76113,Section/lieu-dit
2798058,'s-Gravenvoeren,'s-Gravenvoeren,Voeren,Limburg Province,Flanders,50.75872,5.76113,Section/lieu-dit
2786792,'s-Gravenwezel,'s-Gravenwezel,Schilde,Antwerp Province,Flanders,51.26267,4.56113,Section/lieu-dit
2786788,'s Heerenelderen,'s Herenelderen,Tongeren,Limburg Province,Flanders,50.80882,5.50067,Section/lieu-dit
2786791,'s Heerwillems-Cappelle,'s Heerwillemskapelle,Veurne,West Flanders Province,Flanders,51.06898,2.7535,Section/lieu-dit
2786791,'s Heerwillemskapelle,'s Heerwillemskapelle,Veurne,West Flanders Province,Flanders,51.06898,2.7535,Section/lieu-dit
2786788,'s Herenelderen,'s Herenelderen,Tongeren,Limburg Province,Flanders,50.80882,5.50067,Section/lieu-dit
2803311,'t Akkershoofd,Akkerhoofd,Hamme,East Flanders Province,Flanders,51.07436,4.17812,Section/lieu-dit
2785805,'t Broek,'t Broek,,Hainaut Province,Wallonia,50.78333,4.35,Section/lieu-dit
2798113,'T Fort,Overlede 't Fort,Wachtebeke,East Flanders Province,Flanders,51.16447,3.86037,Section/lieu-dit
2785603,'t Geel,'t Geel,Sint-Niklaas,East Flanders Province,Flanders,51.16667,4.16667,Section/lieu-dit
2785598,'t Hasselt,Aan 't Hoolven,Opglabbeek,Limburg Province,Flanders,51.05,5.61667,Section/lieu-dit
2785596,'t Heet,'t Heet,Hamme,East Flanders Province,Flanders,51.07753,4.12861,Section/lieu-dit
2785595,'t Heetje,'t Heetje,Lendelede,West Flanders Province,Flanders,50.88333,3.26667,Section/lieu-dit
2785541,'t Hoekske,'t Hoeksken,Geraardsbergen,East Flanders Province,Flanders,50.8,3.96667,Section/lieu-dit
2785541,'t Hoeksken,Den Hoek,Geraardsbergen,East Flanders Province,Flanders,50.76667,3.83333,Section/lieu-dit
2785539,'t Hoge,'t Hoge,Tielt,West Flanders Province,Flanders,50.99244,3.4242,Section/lieu-dit
2785538,'t Holleken,’t Holleken,Linkebeek,Flemish Brabant Province,Flanders,50.76413,4.34848,Section/lieu-dit
2785540,'T Hooghe,'t Hoge,Kortrijk,West Flanders Province,Flanders,50.79936,3.28558,Section/lieu-dit
2785529,'t Hoogste,'t Hoogste,Bornem,Antwerp Province,Flanders,51.07364,4.21509,Section/lieu-dit
2794973,'t Jammelshoek,Jammelshoek,Anzegem,West Flanders Province,Flanders,50.85577,3.47462,Section/lieu-dit
2785416,'t Joenshoek,'t Joenshoek,Kruishoutem,East Flanders Province,Flanders,50.88333,3.51667,Section/lieu-dit
2795874,'T Kalf,Het Kalf,Sint-Gillis-Waas,East Flanders Province,Flanders,51.23527,4.10054,Section/lieu-dit
2785414,'t Kruispunt,'t Kruispunt,Bonheiden,Antwerp Province,Flanders,51.01667,4.6,Section/lieu-dit
2785413,'t Luik,Theux,Theux,Liège Province,Wallonia,50.53323,5.81245,Commune
2785412,'t Molentje,'t Molentje,Kortrijk,West Flanders Province,Flanders,50.74697,3.3205,Section/lieu-dit
2787785,'t Rond-Punt,Rond Punt,Merksplas,Antwerp Province,Flanders,51.38333,4.88333,Section/lieu-dit
2787676,'t Rot,Rot,Lubbeek,Flemish Brabant Province,Flanders,50.90336,4.82952,Section/lieu-dit
2787676,'t Roth,Rot,Lubbeek,Flemish Brabant Province,Flanders,50.90336,4.82952,Section/lieu-dit
2795854,'t Sas,Het Sas,Grimbergen,Flemish Brabant Province,Flanders,50.97853,4.39281,Section/lieu-dit
2785173,'t Schoon,'t Schoon,Hoogstraten,Antwerp Province,Flanders,51.42858,4.81055,Section/lieu-dit
2786990,'t Schoor,Schoor,Hamme,East Flanders Province,Flanders,51.05,4.18333,Section/lieu-dit
2786492,'t Sluis,Sluis,Gavere,East Flanders Province,Flanders,50.9549,3.65527,Section/lieu-dit
2785171,'t Smisje,'t Smisken,Zuienkerke,West Flanders Province,Flanders,51.26769,3.09526,Section/lieu-dit
2785171,'t Smisken,'t Smisken,Zuienkerke,West Flanders Province,Flanders,51.26769,3.09526,Section/lieu-dit
2784966,'t Veld,Veld,Kruishoutem,East Flanders Province,Flanders,50.93383,3.50413,Section/lieu-dit
2784966,'T Velt,Veld,Kruishoutem,East Flanders Province,Flanders,50.93383,3.50413,Section/lieu-dit
2785130,'t Withof,'t Withof,Hoogstraten,Antwerp Province,Flanders,51.41264,4.76882,Section/lieu-dit
2785129,'t Wolfgat,'t Wolfgat,Wichelen,East Flanders Province,Flanders,50.9791,3.93571,Section/lieu-dit
2785127,'t Zand,'t Zand,Vorselaar,Antwerp Province,Flanders,51.20682,4.78012,Section/lieu-dit
2795829,'t Zwin,Het Zwin,Knokke-Heist,West Flanders Province,Flanders,51.36667,3.36667,Section/lieu-dit
2803456,Aaigem,Aaigem,Erpe-Mere,East Flanders Province,Flanders,50.88921,3.93674,Section/lieu-dit
2803454,Aalbeke,Aalbeke,Kortrijk,West Flanders Province,Flanders,50.77848,3.22952,Section/lieu-dit
2803453,Aalbroek,Aalbroek,Gavere,East Flanders Province,Flanders,50.93608,3.65924,Section/lieu-dit
2803448,Aalst,Aalst,Aalst,East Flanders Province,Flanders,50.93604,4.0355,Commune
2803445,Aalst-Saint Pierre,Sint-Lievens-Houtem,Sint-Lievens-Houtem,East Flanders Province,Flanders,50.9197,3.86225,Commune
2803445,Aalst Sint-Pieter,Sint-Pieters-Aalst,Gent,East Flanders Province,Flanders,51.03055,3.71632,Section/lieu-dit
2803442,Aaltebei,Aalterbei,Aalter,East Flanders Province,Flanders,51.1,3.5,Section/lieu-dit
2803443,Aalter,Aalter,Aalter,East Flanders Province,Flanders,51.09017,3.44693,Commune
2803442,Aalterbei,Aalterbei,Aalter,East Flanders Province,Flanders,51.1,3.5,Section/lieu-dit
2803441,Aalterburg,Aalterburg,Aalter,East Flanders Province,Flanders,51.1093,3.43378,Section/lieu-dit
2803436,Aan 't Holven,Aan 't Hoolven,Opglabbeek,Limburg Province,Flanders,51.05,5.61667,Section/lieu-dit
2803436,Aan 't Hoolven,Aan 't Hoolven,Opglabbeek,Limburg Province,Flanders,51.05,5.61667,Section/lieu-dit
2803440,Aan de Bunders,Aan de Bunders,Hasselt,Limburg Province,Flanders,50.93333,5.23333,Section/lieu-dit
2799735,Aan de Kippen,De Kippen,Peer,Limburg Province,Flanders,51.15,5.46667,Section/lieu-dit
2792017,Aan de Luyssen,Luissen,Bree,Limburg Province,Flanders,51.17989,5.63902,Section/lieu-dit
2790182,Aan den Nieuwen Vijver,Nieuwenvijver,Hasselt,Limburg Province,Flanders,50.97856,5.28844,Section/lieu-dit
2803439,Aan den Steenoven,Aan den Steenoven,Heusden-Zolder,Limburg Province,Flanders,51.05,5.3,Section/lieu-dit
2803439,Aan de Steenoven,Aan den Steenoven,Heusden-Zolder,Limburg Province,Flanders,51.05,5.3,Section/lieu-dit
2803438,Aan de Vreenen,Aan de Vrenen,Peer,Limburg Province,Flanders,51.1,5.43333,Section/lieu-dit
2803438,Aan de Vrenen,Aan de Vrenen,Peer,Limburg Province,Flanders,51.1,5.43333,Section/lieu-dit
2803437,Aan de Wolfsberg,Aan de Wolfsberg,Genk,Limburg Province,Flanders,51,5.48333,Section/lieu-dit
2803435,Aard,Aard en Hemelrijkseheide,Hoogstraten,Antwerp Province,Flanders,51.4,4.73017,Section/lieu-dit
2803434,Aardappelhoek,Aardappelhoek,Roeselare,West Flanders Province,Flanders,50.95255,3.15531,Section/lieu-dit
2803433,Aard en Hemelrijksche Heide,Aard en Hemelrijkseheide,Hoogstraten,Antwerp Province,Flanders,51.4,4.73017,Section/lieu-dit
2803433,Aard en Hemelrijkseheide,Aard en Hemelrijkseheide,Hoogstraten,Antwerp Province,Flanders,51.4,4.73017,Section/lieu-dit
2803432,Aardenweg,Aardenweg,Diest,Flemish Brabant Province,Flanders,50.95764,5.06428,Section/lieu-dit
2803073,Aarle,Arlon,Arlon,Luxembourg Province,Wallonia,49.68333,5.81667,Commune
2803073,Aarlen,Arlon,Arlon,Luxembourg Province,Wallonia,49.68333,5.81667,Commune
2793406,Aarschot,Aarschot,Aarschot,Flemish Brabant Province,Flanders,50.98715,4.83695,Commune
2803429,Aarschoti vald,Aarschot,Aarschot,Flemish Brabant Province,Flanders,50.98715,4.83695,Commune
2803427,Aarsele,Aarsele,Tielt,West Flanders Province,Flanders,50.99663,3.41954,Section/lieu-dit
2803429,Aarshot,Aarschot,Aarschot,Flemish Brabant Province,Flanders,50.98715,4.83695,Commune
2803426,Aars Houw,Aars Houw,Maaseik,Limburg Province,Flanders,51.05371,5.63988,Section/lieu-dit
2803424,Aart,Aart,Geel,Antwerp Province,Flanders,51.20319,4.98627,Section/lieu-dit
8521705,Aartrijke,Aartrijke,Zedelgem,West Flanders Province,Flanders,51.11915,3.09076,Section/lieu-dit
2803420,Aartselaar,Aartselaar,Aartselaar,Antwerp Province,Flanders,51.13412,4.38678,Commune
2803426,Aartshouw,Aars Houw,Maaseik,Limburg Province,Flanders,51.05371,5.63988,Section/lieu-dit
2803210,Abbaye d'Aulne,Ancienne Abbaye d'Aulne,Thuin,Hainaut Province,Wallonia,50.35,4.31667,Section/lieu-dit
2803410,Abbaye d'Orval,Abbaye d'Orval,Florenville,Luxembourg Province,Wallonia,49.63961,5.34979,Section/lieu-dit
2785312,Abbaye de la Trappe,Trappe,Hamont-Achel,Limburg Province,Flanders,51.3,5.48333,Section/lieu-dit
2803296,Abdeneyk,Alden Eik,Maaseik,Limburg Province,Flanders,51.10207,5.80551,Section/lieu-dit
2803405,Abee,Abée,Tinlot,Liège Province,Wallonia,50.47328,5.3555,Section/lieu-dit
2803405,Abée,Abée,Tinlot,Liège Province,Wallonia,50.47328,5.3555,Section/lieu-dit
2803404,Abeelbroekstraat,Abeelbroekstraat,Gent,East Flanders Province,Flanders,51.06667,3.78333,Section/lieu-dit
2803399,Abeele,Abele,,West Flanders Province,Flanders,50.81667,2.66667,Section/lieu-dit
2803403,Abeelhoek,Abeelhoek,Kuurne,West Flanders Province,Flanders,50.85,3.28333,Section/lieu-dit
2803399,Abele,Abele,,West Flanders Province,Flanders,50.81667,2.66667,Section/lieu-dit
2803398,Abime,Abîme,Somme-Leuze,Namur Province,Wallonia,50.26667,5.23333,Section/lieu-dit
2803398,Abîme,Abîme,Somme-Leuze,Namur Province,Wallonia,50.26667,5.23333,Section/lieu-dit
2802990,Abindje,Aubange,Aubange,Luxembourg Province,Wallonia,49.56652,5.80492,Commune
2802990,Åbindje,Aubange,Aubange,Luxembourg Province,Wallonia,49.56652,5.80492,Commune
2803396,Abolens,Abolens,Hannut,Liège Province,Wallonia,50.67258,5.14933,Section/lieu-dit
2803394,Abtsul,Abtsul,Harelbeke,West Flanders Province,Flanders,50.89483,3.26805,Section/lieu-dit
2803391,Achel,Achel,Hamont-Achel,Limburg Province,Flanders,51.253,5.47977,Section/lieu-dit
2803388,Achene,Achêne,Ciney,Namur Province,Wallonia,50.26701,5.04539,Section/lieu-dit
2803388,Achêne,Achêne,Ciney,Namur Province,Wallonia,50.26701,5.04539,Section/lieu-dit
2803387,Achenfosse,Achenfosse,Tubize,Walloon Brabant Province,Wallonia,50.7,4.18333,Section/lieu-dit
2803385,Achet,Achet,Hamois,Namur Province,Wallonia,50.33346,5.17516,Section/lieu-dit
2803384,A Chinecha,À Chinecha,Bastogne,Luxembourg Province,Wallonia,49.98333,5.81667,Section/lieu-dit
2803384,À Chinecha,À Chinecha,Bastogne,Luxembourg Province,Wallonia,49.98333,5.81667,Section/lieu-dit
2803387,Achonfosse,Achenfosse,Tubize,Walloon Brabant Province,Wallonia,50.7,4.18333,Section/lieu-dit
2803383,Achouffe,Achouffe,Houffalize,Luxembourg Province,Wallonia,50.14996,5.74473,Section/lieu-dit
2803382,Achtel,Achtel,Rijkevorsel,Antwerp Province,Flanders,51.37392,4.77013,Section/lieu-dit
2803380,Achtendries,Achtendries,Destelbergen,East Flanders Province,Flanders,51.06667,3.8,Section/lieu-dit
2803380,Achtendriesch,Achtendries,Destelbergen,East Flanders Province,Flanders,51.06667,3.8,Section/lieu-dit
2803379,Achterbist,Achterbist,Nijlen,Antwerp Province,Flanders,51.16645,4.65304,Section/lieu-dit
2803378,Achterbos,Achterbos,Mol,Antwerp Province,Flanders,51.20199,5.10169,Section/lieu-dit
2803378,Achterbosch,Achterbos,Mol,Antwerp Province,Flanders,51.20199,5.10169,Section/lieu-dit
2803377,Achterbroek,Achterbroek,Kalmthout,Antwerp Province,Flanders,51.3968,4.50027,Section/lieu-dit
2803374,Achter den Berg,Achter den Berg,Kortenberg,Flemish Brabant Province,Flanders,50.88333,4.55,Section/lieu-dit
2803374,Achter-Den-Bergh,Achter den Berg,Kortenberg,Flemish Brabant Province,Flanders,50.88333,4.55,Section/lieu-dit
2799608,Achter den Houw,Den Houw,Maaseik,Limburg Province,Flanders,51.05388,5.65543,Section/lieu-dit
2803373,Achter den Kraanberg,Achter den Kraanberg,Houthalen-Helchteren,Limburg Province,Flanders,51.06667,5.35,Section/lieu-dit
2803367,Achterheide,Achterheide-Asdonk,Tessenderlo,Limburg Province,Flanders,51.03333,5.03333,Section/lieu-dit
2803366,Achterheide-Asdonk,Achterheide-Asdonk,Tessenderlo,Limburg Province,Flanders,51.03333,5.03333,Section/lieu-dit
2796233,Achter het Heiderveld,Heiderveld,As,Limburg Province,Flanders,51.01667,5.56667,Section/lieu-dit
2803362,Achterhoek,Achterhoek,Berlaar,Antwerp Province,Flanders,51.12554,4.66614,Section/lieu-dit
2803361,Achterle,Achterlee,Kasterlee,Antwerp Province,Flanders,51.22649,4.87787,Section/lieu-dit
2803361,Achterlee,Achterlee,Kasterlee,Antwerp Province,Flanders,51.22649,4.87787,Section/lieu-dit
2803360,Achter Olen,Achter Olen,Olen,Antwerp Province,Flanders,51.16818,4.90309,Section/lieu-dit
2803360,Achter-Oolen,Achter Olen,Olen,Antwerp Province,Flanders,51.16818,4.90309,Section/lieu-dit
2803359,Achterrot,Achterrot,Borsbeek,Antwerp Province,Flanders,51.18635,4.4952,Section/lieu-dit
2803358,Achterste Hostie,Achterste Hostie,Bocholt,Limburg Province,Flanders,51.20491,5.49965,Section/lieu-dit
2803358,Achtersten-Hostie,Achterste Hostie,Bocholt,Limburg Province,Flanders,51.20491,5.49965,Section/lieu-dit
2803357,Achter Weert,Achter Weert,Bornem,Antwerp Province,Flanders,51.09779,4.18049,Section/lieu-dit
2803356,A Clapette,À Clapette,Gembloux,Namur Province,Wallonia,50.52682,4.75449,Section/lieu-dit
2803356,À Clapette,À Clapette,Gembloux,Namur Province,Wallonia,50.52682,4.75449,Section/lieu-dit
2803354,Acosse,Acosse,Wasseiges,Liège Province,Wallonia,50.59305,5.04684,Section/lieu-dit
2803352,Acoz,Acoz,Gerpinnes,Hainaut Province,Wallonia,50.35904,4.53263,Section/lieu-dit
2803350,Acremont,Acremont,Bertrix,Luxembourg Province,Wallonia,49.89878,5.20897,Section/lieu-dit
2803347,Adegem,Adegem,Maldegem,East Flanders Province,Flanders,51.20509,3.4954,Section/lieu-dit
2803346,Adesberg,Adesberg,Amblève,Liège Province,Wallonia,50.34639,6.17056,Section/lieu-dit
2803345,Adijk,Adijk,Lierde,East Flanders Province,Flanders,50.81667,3.81667,Section/lieu-dit
2803343,Adinkerke,Adinkerke,De Panne,West Flanders Province,Flanders,51.07409,2.59914,Section/lieu-dit
2803342,Adseux,Adseux,Sprimont,Liège Province,Wallonia,50.52205,5.73298,Section/lieu-dit
2803454,Aelbeke,Aalbeke,Kortrijk,West Flanders Province,Flanders,50.77848,3.22952,Section/lieu-dit
2803449,Aelst,Mielen-boven-Aalst,Gingelom,Limburg Province,Flanders,50.75644,5.21421,Section/lieu-dit
2803442,Aeltebey,Aalterbei,Aalter,East Flanders Province,Flanders,51.1,3.5,Section/lieu-dit
2803443,Aeltre,Aalter,Aalter,East Flanders Province,Flanders,51.09017,3.44693,Commune
2803441,Aeltrebrugge,Aalterburg,Aalter,East Flanders Province,Flanders,51.1093,3.43378,Section/lieu-dit
2803434,Aerd-Appelhoek,Aardappelhoek,Roeselare,West Flanders Province,Flanders,50.95255,3.15531,Section/lieu-dit
2803252,a er fu ling e mu,Alveringem,Alveringem,West Flanders Province,Flanders,51.01238,2.71117,Commune
2803431,Aerle,Aarle,Ravels,Antwerp Province,Flanders,51.47759,5.01951,Section/lieu-dit
2803073,a er long,Arlon,Arlon,Luxembourg Province,Wallonia,49.68333,5.81667,Commune
2803429,Aerschot,Aarschot,Aarschot,Flemish Brabant Province,Flanders,50.98715,4.83695,Commune
2803427,Aerseele,Aarsele,Tielt,West Flanders Province,Flanders,50.99663,3.41954,Section/lieu-dit
2803429,a er si huo te,Aarschot,Aarschot,Flemish Brabant Province,Flanders,50.98715,4.83695,Commune
2803443,a er te,Aalst,Aalst,East Flanders Province,Flanders,50.93604,4.0355,Commune
2803420,Aertselaer,Aartselaar,Aartselaar,Antwerp Province,Flanders,51.13412,4.38678,Commune
2803341,A Faihay,À Faihay,Rendeux,Luxembourg Province,Wallonia,50.22127,5.50583,Section/lieu-dit
2803341,À Faihay,À Faihay,Rendeux,Luxembourg Province,Wallonia,50.22127,5.50583,Section/lieu-dit
2796144,Affligem,Teralfene,Affligem,Flemish Brabant Province,Flanders,50.89195,4.09895,Section/lieu-dit
2803340,Affnay,Afnay,Dalhem,Liège Province,Wallonia,50.72616,5.77297,Section/lieu-dit
2803340,Afnai,Afnay,Dalhem,Liège Province,Wallonia,50.72616,5.77297,Section/lieu-dit
2803340,Afnay,Afnay,Dalhem,Liège Province,Wallonia,50.72616,5.77297,Section/lieu-dit
2803338,Afsne,Afsnee,Gent,East Flanders Province,Flanders,51.0317,3.66548,Section/lieu-dit
2803338,Afsné,Afsnee,Gent,East Flanders Province,Flanders,51.0317,3.66548,Section/lieu-dit
2803338,Afsnee,Afsnee,Gent,East Flanders Province,Flanders,51.0317,3.66548,Section/lieu-dit
2803337,Afst,Afst,Bullange,Liège Province,Wallonia,50.33707,6.37724,Section/lieu-dit
2803334,Agimont,Agimont,Hastière,Namur Province,Wallonia,50.1659,4.79579,Section/lieu-dit
2798949,agwzh,Éghezée,Éghezée,Namur Province,Wallonia,50.59076,4.91175,Commune
2803332,Aheree,Aherée,Walcourt,Namur Province,Wallonia,50.31766,4.50104,Section/lieu-dit
2803332,Aherée,Aherée,Walcourt,Namur Province,Wallonia,50.31766,4.50104,Section/lieu-dit
2803331,Ahin,Ben-Ahin,Arrondissement of Huy,Liège Province,Wallonia,50.50415,5.18683,Section/lieu-dit
2803330,Aiby,Aiby,Walcourt,Namur Province,Wallonia,50.25,4.35,Section/lieu-dit
2796037,ai er bo meng,Herbeumont,Herbeumont,Luxembourg Province,Wallonia,49.78086,5.2358,Commune
2798698,ai er ze,Érezée,Érezée,Luxembourg Province,Wallonia,50.29292,5.55815,Commune
2798551,ai fu hai mu,Evergem,Evergem,East Flanders Province,Flanders,51.10529,3.704,Commune
2798949,ai ge ze,Éghezée,Éghezée,Namur Province,Wallonia,50.59076,4.91175,Commune
2796746,Aillemont,Haillemont,Ellezelles,Hainaut Province,Wallonia,50.71248,3.72722,Section/lieu-dit
2803328,Aineffe,Aineffe,Faimes,Liège Province,Wallonia,50.62464,5.25729,Section/lieu-dit
2803327,Ainieres,Arc-Ainières,Frasnes-lez-Anvaing,Hainaut Province,Wallonia,50.70151,3.55433,Section/lieu-dit
2803327,Ainières,Arc-Ainières,Frasnes-lez-Anvaing,Hainaut Province,Wallonia,50.70151,3.55433,Section/lieu-dit
2803325,Aische,Aische-en-Refail,Éghezée,Namur Province,Wallonia,50.60009,4.83775,Section/lieu-dit
2803325,Aische-en-Refail,Aische-en-Refail,Éghezée,Namur Province,Wallonia,50.60009,4.83775,Section/lieu-dit
2803323,Aiseau,Aiseau,Aiseau-Presles,Hainaut Province,Wallonia,50.41158,4.58671,Section/lieu-dit
2787711,Aiseau-Presles,Aiseau-Presles,Aiseau-Presles,Hainaut Province,Wallonia,50.40824,4.58216,Commune
2803320,Aisemont,Aisemont,Fosses-la-Ville,Namur Province,Wallonia,50.40491,4.65185,Section/lieu-dit
2798636,ai si ne,Esneux,Esneux,Liège Province,Wallonia,50.53596,5.56775,Commune
2803318,Aisne,Aisne,Durbuy,Luxembourg Province,Wallonia,50.3555,5.56592,Section/lieu-dit
2803316,Aisomont,Aisomont,Trois-Ponts,Liège Province,Wallonia,50.36167,5.90444,Section/lieu-dit
2803316,Aissomont,Aisomont,Trois-Ponts,Liège Province,Wallonia,50.36167,5.90444,Section/lieu-dit
2798578,ai te er bei ke,Etterbeek,Etterbeek,Bruxelles-Capitale,Brussels Capital,50.83272,4.38835,Commune
2802837,ai wa ye,Aywaille,Aywaille,Liège Province,Wallonia,50.47411,5.67684,Commune
2798554,ai wei lei,Evere,Evere,Bruxelles-Capitale,Brussels Capital,50.87441,4.39905,Commune
2802837,Aiweye,Aywaille,Aywaille,Liège Province,Wallonia,50.47411,5.67684,Commune
2802837,Aiwêye,Aywaille,Aywaille,Liège Province,Wallonia,50.47411,5.67684,Commune
2803315,Aix-sur-Cloix,Aix-sur-Cloix,Aubange,Luxembourg Province,Wallonia,49.57616,5.78122,Section/lieu-dit
2799848,Akker,De Akker,Zelzate,East Flanders Province,Flanders,51.19892,3.83418,Section/lieu-dit
2803312,Akkerhoek,Akkerhoek,Lichtervelde,West Flanders Province,Flanders,51.01667,3.13333,Section/lieu-dit
2803311,Akkerhoofd,Akkerhoofd,Hamme,East Flanders Province,Flanders,51.07436,4.17812,Section/lieu-dit
2799847,Akkerstraat,De Akkers,Maaseik,Limburg Province,Flanders,51.0832,5.70448,Section/lieu-dit
2803309,Akkerveke,Akkerveke,Wuustwezel,Antwerp Province,Flanders,51.38333,4.55,Section/lieu-dit
2803308,Akselwal,Akselwal,Oudenaarde,East Flanders Province,Flanders,50.89658,3.63682,Section/lieu-dit
2803308,Akselwalle,Akselwal,Oudenaarde,East Flanders Province,Flanders,50.89658,3.63682,Section/lieu-dit
2803307,Akspoel,Akspoel,Ruiselede,West Flanders Province,Flanders,51.05835,3.41357,Section/lieu-dit
2803305,A l'Assaint,À l'Assaint,Vielsalm,Luxembourg Province,Wallonia,50.3,5.86667,Section/lieu-dit
2803305,À l'Assaint,À l'Assaint,Vielsalm,Luxembourg Province,Wallonia,50.3,5.86667,Section/lieu-dit
2803275,Al'Linguette,Al'Linguette,Saint-Hubert,Luxembourg Province,Wallonia,50.05,5.33333,Section/lieu-dit
2793255,Al'Saute,La Saute,Saint-Hubert,Luxembourg Province,Wallonia,50.03898,5.36216,Section/lieu-dit
2793713,A la Chaire,La Chaïre,Houffalize,Luxembourg Province,Wallonia,50.08333,5.85,Section/lieu-dit
2793713,A la Chaïre,La Chaïre,Houffalize,Luxembourg Province,Wallonia,50.08333,5.85,Section/lieu-dit
2793649,A-la-Fange-Botte,La Fange Botté,Nassogne,Luxembourg Province,Wallonia,50.16746,5.41972,Section/lieu-dit
2793649,A-la-Fange-Botté,La Fange Botté,Nassogne,Luxembourg Province,Wallonia,50.16746,5.41972,Section/lieu-dit
2796715,alan,Halen,Halen,Limburg Province,Flanders,50.94837,5.11096,Commune
2793169,A la Vieille Rochette,La Vieille Rochette,Libin,Luxembourg Province,Wallonia,49.93333,5.25,Section/lieu-dit
2803299,Al Beyoule,Al Bèyoûle,Nassogne,Luxembourg Province,Wallonia,50.16667,5.43333,Section/lieu-dit
2803299,Al Bèyoûle,Al Bèyoûle,Nassogne,Luxembourg Province,Wallonia,50.16667,5.43333,Section/lieu-dit
2803296,Alden-Eijck,Alden Eik,Maaseik,Limburg Province,Flanders,51.10207,5.80551,Section/lieu-dit
2803296,Alden Eik,Alden Eik,Maaseik,Limburg Province,Flanders,51.10207,5.80551,Section/lieu-dit
2803296,Alden-Eyck,Alden Eik,Maaseik,Limburg Province,Flanders,51.10207,5.80551,Section/lieu-dit
2803295,Aldenhof,Aldenhof,Hasselt,Limburg Province,Flanders,50.95,5.28333,Section/lieu-dit
2802955,Aldringen,Aldringen,Burg-Reuland,Liège Province,Wallonia,50.22111,6.02278,Section/lieu-dit
2803073,aleullong,Arlon,Arlon,Luxembourg Province,Wallonia,49.68333,5.81667,Commune
2803429,aleuseuhos,Aarschot,Aarschot,Flemish Brabant Province,Flanders,50.98715,4.83695,Commune
2803293,Alfelaar,Alfelaar,Berlaar,Antwerp Province,Flanders,51.10236,4.66353,Section/lieu-dit
2803291,Alfersteg,Alfersteg,Saint-Vith,Liège Province,Wallonia,50.26012,6.209,Section/lieu-dit
2803290,Al Gloriette,Al Gloriette,Marche-en-Famenne,Luxembourg Province,Wallonia,50.18537,5.43754,Section/lieu-dit
2803289,Al Hesse,Al Hesse,Lierneux,Liège Province,Wallonia,50.27441,5.8498,Section/lieu-dit
2803288,Alhez,Alhez,Bastogne,Luxembourg Province,Wallonia,50.03333,5.81667,Section/lieu-dit
2803287,Alhoumont,Alhoumont,Houffalize,Luxembourg Province,Wallonia,50.11474,5.8171,Section/lieu-dit
2803285,Alken,Alken,Alken,Limburg Province,Flanders,50.87553,5.30558,Commune
2803285,Alkén,Alken,Alken,Limburg Province,Flanders,50.87553,5.30558,Commune
2803283,Allain,Allain,Arrondissement of Tournai,Hainaut Province,Wallonia,50.6,3.4,Section/lieu-dit
2803281,Alle,Alle,Vresse-sur-Semois,Namur Province,Wallonia,49.84119,4.97011,Section/lieu-dit
2803285,Alleke,Alken,Alken,Limburg Province,Flanders,50.87553,5.30558,Commune
2796746,Allemont,Haillemont,Ellezelles,Hainaut Province,Wallonia,50.71248,3.72722,Section/lieu-dit
2803278,Alleur,Alleur,Ans,Liège Province,Wallonia,50.67465,5.51316,Section/lieu-dit
2803277,Allierscheheide,Allierseheide,Lier,Antwerp Province,Flanders,51.15,4.56667,Section/lieu-dit
2803277,Allierseheide,Allierseheide,Lier,Antwerp Province,Flanders,51.15,4.56667,Section/lieu-dit
2803274,Allmuhten,Allmuten,Bullange,Liège Province,Wallonia,50.34384,6.38423,Section/lieu-dit
2803274,Allmuten,Allmuten,Bullange,Liège Province,Wallonia,50.34384,6.38423,Section/lieu-dit
2803274,Allmuthen,Allmuten,Bullange,Liège Province,Wallonia,50.34384,6.38423,Section/lieu-dit
2803273,Almache,Almache,Paliseul,Luxembourg Province,Wallonia,49.86571,5.09821,Section/lieu-dit
2803271,Alnoir,Alnoir,Jemeppe-sur-Sambre,Namur Province,Wallonia,50.46667,4.63333,Section/lieu-dit
2803448,Alost,Aalst,Aalst,East Flanders Province,Flanders,50.93604,4.0355,Commune
2803293,Alphelaar,Alfelaar,Berlaar,Antwerp Province,Flanders,51.10236,4.66353,Section/lieu-dit
2803293,Alphelaer,Alfelaar,Berlaar,Antwerp Province,Flanders,51.10236,4.66353,Section/lieu-dit
2803269,Alsberg,Alsberg,Tielt-Winge,Flemish Brabant Province,Flanders,50.92613,4.89147,Section/lieu-dit
2803266,Alsemberg,Alsemberg,Beersel,Flemish Brabant Province,Flanders,50.74134,4.33754,Section/lieu-dit
2803265,Alsput,Alsput,Halle,Flemish Brabant Province,Flanders,50.75009,4.23077,Section/lieu-dit
2803264,Alster,Alster,Burg-Reuland,Liège Province,Wallonia,50.21078,6.12542,Section/lieu-dit
2803262,Altembroek,Altembroek,,Liège Province,Wallonia,50.76667,5.78333,Section/lieu-dit
2803262,Altembrouck,Altembroek,,Liège Province,Wallonia,50.76667,5.78333,Section/lieu-dit
2803262,Altenbrouck,Altembroek,,Liège Province,Wallonia,50.76667,5.78333,Section/lieu-dit
2803443,Alter,Aalter,Aalter,East Flanders Province,Flanders,51.09017,3.44693,Commune
2803443,alth,Aalter,Aalter,East Flanders Province,Flanders,51.09017,3.44693,Commune
2803259,Alt Hattlich,Alt Hattlich,Eupen,Liège Province,Wallonia,50.56667,6.13333,Section/lieu-dit
2803258,Altiaux,Altiaux,Chastre,Walloon Brabant Province,Wallonia,50.57285,4.60547,Section/lieu-dit
2803257,Altiere,Altière,Arrondissement of Tournai,Hainaut Province,Wallonia,50.62248,3.56636,Section/lieu-dit
2803257,Altière,Altière,Arrondissement of Tournai,Hainaut Province,Wallonia,50.62248,3.56636,Section/lieu-dit
2803257,Altieres,Altière,Arrondissement of Tournai,Hainaut Province,Wallonia,50.62248,3.56636,Section/lieu-dit
2803257,Altières,Altière,Arrondissement of Tournai,Hainaut Province,Wallonia,50.62248,3.56636,Section/lieu-dit
2803254,Alvaux,Alvaux,Gembloux,Namur Province,Wallonia,50.52001,4.6771,Section/lieu-dit
2803254,Alveaux,Alveaux,La Bruyère,Namur Province,Wallonia,50.55497,4.80853,Section/lieu-dit
2803252,Alveringem,Alveringem,Alveringem,West Flanders Province,Flanders,51.01238,2.71117,Commune
2803252,Alveringhem,Alveringem,Alveringem,West Flanders Province,Flanders,51.01238,2.71117,Commune
2803252,alwwrnzhm,Alveringem,Alveringem,West Flanders Province,Flanders,51.01238,2.71117,Commune
2798836,alzl,Ellezelles,Ellezelles,Hainaut Province,Wallonia,50.73512,3.67985,Commune
2793255,Al’ Saute,La Saute,Saint-Hubert,Luxembourg Province,Wallonia,50.03898,5.36216,Section/lieu-dit
2803346,Am Adesberg,Adesberg,Amblève,Liège Province,Wallonia,50.34639,6.17056,Section/lieu-dit
2803246,a mai,Amay,Amay,Liège Province,Wallonia,50.54829,5.30974,Commune
2791705,A Marfontaine,Marfontaine,Neufchâteau,Luxembourg Province,Wallonia,49.86596,5.50806,Section/lieu-dit
2803249,Amas,Amas,Clavier,Liège Province,Wallonia,50.39797,5.41958,Section/lieu-dit
2803248,A Massehottee,À Massehottée,Vielsalm,Luxembourg Province,Wallonia,50.25,5.75,Section/lieu-dit
2803248,À Massehottée,À Massehottée,Vielsalm,Luxembourg Province,Wallonia,50.25,5.75,Section/lieu-dit
2789862,Amay,Amay,Amay,Liège Province,Wallonia,50.54829,5.30974,Commune
2803138,Amberes,Antwerpen,Antwerpen,Antwerp Province,Flanders,51.21989,4.40346,Commune
2803138,Amberis,Antwerpen,Antwerpen,Antwerp Province,Flanders,51.21989,4.40346,Commune
2803244,Amberloup,Amberloup,Sainte-Ode,Luxembourg Province,Wallonia,50.03123,5.52981,Section/lieu-dit
2796050,Ambleve,Amblève,Amblève,Liège Province,Wallonia,50.35357,6.17002,Commune
2796050,Amblève,Amblève,Amblève,Liège Province,Wallonia,50.35357,6.17002,Commune
2803238,Ambly,Ambly,Nassogne,Luxembourg Province,Wallonia,50.14453,5.31185,Section/lieu-dit
2803236,Ambresin,Ambresin,Wasseiges,Liège Province,Wallonia,50.63068,5.03097,Section/lieu-dit
2803235,Ambresinaux,Ambresinaux,Wasseiges,Liège Province,Wallonia,50.62771,5.0301,Section/lieu-dit
2803242,Amel,Amblève,Amblève,Liège Province,Wallonia,50.35357,6.17002,Commune
2803233,Amelscheid,Amelscheid,Saint-Vith,Liège Province,Wallonia,50.27667,6.2575,Section/lieu-dit
2803232,Amelsdorp,Amelsdorp,Bilzen,Limburg Province,Flanders,50.85801,5.54981,Section/lieu-dit
2803231,Amercoeur,Amercoeur,Liège,Liège Province,Wallonia,50.63333,5.58333,Section/lieu-dit
2803230,America,Amerika,Wervik,West Flanders Province,Flanders,50.8045,3.02612,Section/lieu-dit
2803230,Amerika,Amerika,Wervik,West Flanders Province,Flanders,50.8045,3.02612,Section/lieu-dit
2803229,Amermont,Amermont,Stavelot,Liège Province,Wallonia,50.41168,5.94027,Section/lieu-dit
2803226,Amersveld,Amersveld,Kortemark,West Flanders Province,Flanders,51.01069,2.98199,Section/lieu-dit
2803226,Amersvelde,Amersveld,Kortemark,West Flanders Province,Flanders,51.01069,2.98199,Section/lieu-dit
2803225,Am Kreuz,Am Kreuz,Amblève,Liège Province,Wallonia,50.37124,6.13783,Section/lieu-dit
2796627,Amoa,Hamois,Hamois,Namur Province,Wallonia,50.3402,5.15619,Commune
2796629,Amoar,Hamoir,Hamoir,Liège Province,Wallonia,50.42675,5.53304,Commune
2803224,Amon Delbroucq,Amon Delbroucq,Liège,Liège Province,Wallonia,50.66667,5.55,Section/lieu-dit
2803222,Amonines,Amonines,Érezée,Luxembourg Province,Wallonia,50.26485,5.55809,Section/lieu-dit
2803220,Amougies,Amougies,Mont-de-l'Enclus,Hainaut Province,Wallonia,50.74446,3.50675,Section/lieu-dit
2803217,Ampsin,Ampsin,Amay,Liège Province,Wallonia,50.54153,5.2779,Section/lieu-dit
2803216,Amry,Amry,Oupeye,Liège Province,Wallonia,50.73167,5.64377,Section/lieu-dit
2803215,Am Stein,Am Stein,Amblève,Liège Province,Wallonia,50.34767,6.12752,Section/lieu-dit
2803138,amtavarpa,Antwerpen,Antwerpen,Antwerp Province,Flanders,51.21989,4.40346,Commune
2796627,Amua,Hamois,Hamois,Namur Province,Wallonia,50.3402,5.15619,Commune
2796629,Amuar,Hamoir,Hamoir,Liège Province,Wallonia,50.42675,5.53304,Commune
2796627,a mu wa,Hamoir,Hamoir,Liège Province,Wallonia,50.42675,5.53304,Commune
2796629,a mu wa er,Hamoir,Hamoir,Liège Province,Wallonia,50.42675,5.53304,Commune
2803138,Amversa,Antwerpen,Antwerpen,Antwerp Province,Flanders,51.21989,4.40346,Commune
2796627,amwa,Hamois,Hamois,Namur Province,Wallonia,50.3402,5.15619,Commune
2796629,amwar,Hamoir,Hamoir,Liège Province,Wallonia,50.42675,5.53304,Commune
2803138,Anberes,Antwerpen,Antwerpen,Antwerp Province,Flanders,51.21989,4.40346,Commune
2803210,Ancienne Abbaye d'Aulne,Ancienne Abbaye d'Aulne,Thuin,Hainaut Province,Wallonia,50.35,4.31667,Section/lieu-dit
2803209,Ancien Vivier,Ancien Vivier,Jalhay,Liège Province,Wallonia,50.53333,6.03333,Section/lieu-dit
2803201,an de lai he te,Anderlecht,Anderlecht,Bruxelles-Capitale,Brussels Capital,50.83619,4.31454,Commune
2803204,Anden,Andenne,Andenne,Namur Province,Wallonia,50.48941,5.09513,Commune
2803204,Andene,Andenne,Andenne,Namur Province,Wallonia,50.48941,5.09513,Commune
2803207,Andenelle,Andenelle,Andenne,Namur Province,Wallonia,50.49481,5.1123,Section/lieu-dit
2803204,Andenn,Andenne,Andenne,Namur Province,Wallonia,50.48941,5.09513,Commune
2784795,Andenne,Andenne,Andenne,Namur Province,Wallonia,50.48941,5.09513,Commune
2803201,andeoleheuteu,Anderlecht,Anderlecht,Bruxelles-Capitale,Brussels Capital,50.83619,4.31454,Commune
2803203,Anderenbroek,Anderenbroek,Haaltert,East Flanders Province,Flanders,50.88333,4.03333,Section/lieu-dit
2802960,Anderghen,Auderghem,Oudergem,Bruxelles-Capitale,Brussels Capital,50.81667,4.43333,Section/lieu-dit
2803201,Anderlacum,Anderlecht,Anderlecht,Bruxelles-Capitale,Brussels Capital,50.83619,4.31454,Commune
2803201,Anderlech,Anderlecht,Anderlecht,Bruxelles-Capitale,Brussels Capital,50.83619,4.31454,Commune
2803201,Anderlecht,Anderlecht,Anderlecht,Bruxelles-Capitale,Brussels Capital,50.83619,4.31454,Commune
2803201,Anderleht,Anderlecht,Anderlecht,Bruxelles-Capitale,Brussels Capital,50.83619,4.31454,Commune
2803201,Anderlek,Anderlecht,Anderlecht,Bruxelles-Capitale,Brussels Capital,50.83619,4.31454,Commune
2803201,Anderlekht,Anderlecht,Anderlecht,Bruxelles-Capitale,Brussels Capital,50.83619,4.31454,Commune
2803199,Anderlju,Anderlues,Anderlues,Hainaut Province,Wallonia,50.40704,4.27136,Commune
2803199,Anderlues,Anderlues,Anderlues,Hainaut Province,Wallonia,50.40704,4.27136,Commune
2803201,anderurehito,Anderlecht,Anderlecht,Bruxelles-Capitale,Brussels Capital,50.83619,4.31454,Commune
2803198,Andler,Andler,Saint-Vith,Liège Province,Wallonia,50.30611,6.28306,Section/lieu-dit
2803204,andn,Andenne,Andenne,Namur Province,Wallonia,50.48941,5.09513,Commune
2803196,Andoumont,Andoumont,Les Bons Villers,Hainaut Province,Wallonia,50.52924,4.3977,Section/lieu-dit
2803195,Andoy,Fort d'Andoy,Arrondissement of Namur,Namur Province,Wallonia,50.43474,4.93269,Section/lieu-dit
2803192,Andricourt,Andricourt,Leuze-en-Hainaut,Hainaut Province,Wallonia,50.60716,3.68411,Section/lieu-dit
2803191,Andrifosse,Andrîfosse,Waimes,Liège Province,Wallonia,50.46667,6.13333,Section/lieu-dit
2803191,Andrîfosse,Andrîfosse,Waimes,Liège Province,Wallonia,50.46667,6.13333,Section/lieu-dit
2803187,Andrimont,Andrimont,Dison,Liège Province,Wallonia,50.61298,5.88294,Section/lieu-dit
2803201,andrlkht,Anderlecht,Anderlecht,Bruxelles-Capitale,Brussels Capital,50.83619,4.31454,Commune
2803201,andrlsht,Anderlecht,Anderlecht,Bruxelles-Capitale,Brussels Capital,50.83619,4.31454,Commune
2803199,andrlw,Anderlues,Anderlues,Hainaut Province,Wallonia,50.40704,4.27136,Commune
2803204,ang dai ne,Andenne,Andenne,Namur Province,Wallonia,50.48941,5.09513,Commune
2803148,ang di en,Ans,Ans,Liège Province,Wallonia,50.6623,5.52029,Commune
2798758,Ange,Engel,Ichtegem,West Flanders Province,Flanders,51.10171,3.02919,Section/lieu-dit
2803183,Angleur,Angleur,Liège,Liège Province,Wallonia,50.6113,5.59942,Section/lieu-dit
2803174,ang nei,Anhée,Anhée,Namur Province,Wallonia,50.31039,4.87827,Commune
2803182,Angousart,Angousart,Wavre,Walloon Brabant Province,Wallonia,50.72366,4.56348,Section/lieu-dit
2803182,Angoussart,Angousart,Wavre,Walloon Brabant Province,Wallonia,50.72366,4.56348,Section/lieu-dit
2803180,Angre,Angre,Honnelles,Hainaut Province,Wallonia,50.36583,3.69535,Section/lieu-dit
2803177,Angreau,Angreau,Honnelles,Hainaut Province,Wallonia,50.35083,3.69149,Section/lieu-dit
2798743,ang ri,Ans,Ans,Liège Province,Wallonia,50.6623,5.52029,Commune
2803160,ang si,Ans,Ans,Liège Province,Wallonia,50.6623,5.52029,Commune
2784038,Anhee,Anhée,Anhée,Namur Province,Wallonia,50.31039,4.87827,Commune
2784038,Anhée,Anhée,Anhée,Namur Province,Wallonia,50.31039,4.87827,Commune
2803174,Anhee sur Meuse,Anhée,Anhée,Namur Province,Wallonia,50.31039,4.87827,Commune
2803174,Anhée sur Meuse,Anhée,Anhée,Namur Province,Wallonia,50.31039,4.87827,Commune
2803174,Anheye,Anhée,Anhée,Namur Province,Wallonia,50.31039,4.87827,Commune
2803174,Anhêye,Anhée,Anhée,Namur Province,Wallonia,50.31039,4.87827,Commune
2803173,Anixhe,Anixhe,Juprelle,Liège Province,Wallonia,50.70798,5.57134,Section/lieu-dit
2803171,Anlier,Anlier,Habay,Luxembourg Province,Wallonia,49.77142,5.62011,Section/lieu-dit
2803167,Anloy,Anloy,Libin,Luxembourg Province,Wallonia,49.94978,5.22192,Section/lieu-dit
2803166,Annecroix,Annecroix,Rebecq,Walloon Brabant Province,Wallonia,50.70253,4.11843,Section/lieu-dit
2803165,Annekenshoek,Annekenshoek,Kruibeke,East Flanders Province,Flanders,51.16667,4.31667,Section/lieu-dit
2803162,Annevoie-Rouillon,Annevoie-Rouillon,Anhée,Namur Province,Wallonia,50.34776,4.84961,Section/lieu-dit
2803159,Ansart,Ansart,Tintigny,Luxembourg Province,Wallonia,49.69187,5.5231,Section/lieu-dit
2803160,Anse,Ans,Ans,Liège Province,Wallonia,50.6623,5.52029,Commune
2803130,Anseghem,Anzegem,Anzegem,West Flanders Province,Flanders,50.837,3.47786,Commune
2803157,Anseremme,Anseremme,Dinant,Namur Province,Wallonia,50.23996,4.89904,Section/lieu-dit
2803155,Anseroeul,Anseroeul,Mont-de-l'Enclus,Hainaut Province,Wallonia,50.72739,3.5237,Section/lieu-dit
2796056,Ansi,Hensies,Hensies,Hainaut Province,Wallonia,50.43263,3.68411,Commune
2803160,ansu,Ans,Ans,Liège Province,Wallonia,50.6623,5.52029,Commune
2803154,Ansuelle,Ansuelle,Anderlues,Hainaut Province,Wallonia,50.39374,4.24818,Section/lieu-dit
2796056,ansy,Hensies,Hensies,Hainaut Province,Wallonia,50.43263,3.68411,Commune
2803148,Antene,Anthisnes,Anthisnes,Liège Province,Wallonia,50.48323,5.519,Commune
2803138,anteubeleupen,Antwerpen,Antwerpen,Antwerp Province,Flanders,51.21989,4.40346,Commune
2803138,an te wei pu,Antwerpen,Antwerpen,Antwerp Province,Flanders,51.21989,4.40346,Commune
2803152,Anthee,Anthée,Onhaye,Namur Province,Wallonia,50.24018,4.76197,Section/lieu-dit
2803152,Anthée,Anthée,Onhaye,Namur Province,Wallonia,50.24018,4.76197,Section/lieu-dit
2803150,Antheit,Antheit,Wanze,Liège Province,Wallonia,50.54927,5.24022,Section/lieu-dit
2784656,Anthisnes,Anthisnes,Anthisnes,Liège Province,Wallonia,50.48323,5.519,Commune
2803146,Antiemont,Antiémont,Marche-en-Famenne,Luxembourg Province,Wallonia,50.18333,5.3,Section/lieu-dit
2803146,Antiémont,Antiémont,Marche-en-Famenne,Luxembourg Province,Wallonia,50.18333,5.3,Section/lieu-dit
2803148,Antin,Anthisnes,Anthisnes,Liège Province,Wallonia,50.48323,5.519,Commune
2803144,Antoan,Antoing,Antoing,Hainaut Province,Wallonia,50.56765,3.4492,Commune
2803144,Antoing,Antoing,Antoing,Hainaut Province,Wallonia,50.56765,3.4492,Commune
2803141,Anton,Anton,Andenne,Namur Province,Wallonia,50.49188,5.06839,Section/lieu-dit
2803138,antou~erupen,,,,,,,
2803138,antowapu,Antwerpen,Antwerpen,Antwerp Province,Flanders,51.21989,4.40346,Commune
2803138,Antuairp,Antwerpen,Antwerpen,Antwerp Province,Flanders,51.21989,4.40346,Commune
2803138,Antuerpen,Antwerpen,Antwerpen,Antwerp Province,Flanders,51.21989,4.40346,Commune
2803138,Antuerpia,Antwerpen,Antwerpen,Antwerp Province,Flanders,51.21989,4.40346,Commune
2803138,Antuérpia,Antwerpen,Antwerpen,Antwerp Province,Flanders,51.21989,4.40346,Commune
2803138,antverp,Antwerpen,Antwerpen,Antwerp Province,Flanders,51.21989,4.40346,Commune
2803138,Antverpen,Antwerpen,Antwerpen,Antwerp Province,Flanders,51.21989,4.40346,Commune
2803138,Antverpenas,Antwerpen,Antwerpen,Antwerp Province,Flanders,51.21989,4.40346,Commune
2803138,Antverpene,Antwerpen,Antwerpen,Antwerp Province,Flanders,51.21989,4.40346,Commune
2803138,Antverpeno,Antwerpen,Antwerpen,Antwerp Province,Flanders,51.21989,4.40346,Commune
2803138,Antverpens,Antwerpen,Antwerpen,Antwerp Province,Flanders,51.21989,4.40346,Commune
2803138,Antverpia,Antwerpen,Antwerpen,Antwerp Province,Flanders,51.21989,4.40346,Commune
2803138,Antverpy,Antwerpen,Antwerpen,Antwerp Province,Flanders,51.21989,4.40346,Commune
2803138,Antwarp,Antwerpen,Antwerpen,Antwerp Province,Flanders,51.21989,4.40346,Commune
2795730,Antwerp,Antwerpen,Antwerpen,Antwerp Province,Flanders,51.21989,4.40346,Commune
2803138,Antwérp,Antwerpen,Antwerpen,Antwerp Province,Flanders,51.21989,4.40346,Commune
2803138,Antwerpa,Antwerpen,Antwerpen,Antwerp Province,Flanders,51.21989,4.40346,Commune
2803138,Antwerpe,Antwerpen,Antwerpen,Antwerp Province,Flanders,51.21989,4.40346,Commune
2783337,Antwerpen,Antwerpen,Antwerpen,Antwerp Province,Flanders,51.21989,4.40346,Commune
2803138,Antwerpia,Antwerpen,Antwerpen,Antwerp Province,Flanders,51.21989,4.40346,Commune
2803138,Antwerpium,Antwerpen,Antwerpen,Antwerp Province,Flanders,51.21989,4.40346,Commune
2803138,Antwerpn,Antwerpen,Antwerpen,Antwerp Province,Flanders,51.21989,4.40346,Commune
2803138,antwrb,Antwerpen,Antwerpen,Antwerp Province,Flanders,51.21989,4.40346,Commune
2803138,antwrp,Antwerpen,Antwerpen,Antwerp Province,Flanders,51.21989,4.40346,Commune
2803138,antwyrb,Antwerpen,Antwerpen,Antwerp Province,Flanders,51.21989,4.40346,Commune
2803138,Antwyrpijo,Antwerpen,Antwerpen,Antwerp Province,Flanders,51.21989,4.40346,Commune
2803144,antyan,Antoing,Antoing,Hainaut Province,Wallonia,50.56765,3.4492,Commune
2803148,antyzn,Anthisnes,Anthisnes,Liège Province,Wallonia,50.48323,5.519,Commune
2803133,Anvaing,Frasnes-lez-Buissenal,Frasnes-lez-Anvaing,Hainaut Province,Wallonia,50.66783,3.62047,Section/lieu-dit
2803138,Anvers,Antwerpen,Antwerpen,Antwerp Province,Flanders,51.21989,4.40346,Commune
2803138,Anvèrs,Antwerpen,Antwerpen,Antwerp Province,Flanders,51.21989,4.40346,Commune
2803138,Anversa,Antwerpen,Antwerpen,Antwerp Province,Flanders,51.21989,4.40346,Commune
2803138,Anverse,Antwerpen,Antwerpen,Antwerp Province,Flanders,51.21989,4.40346,Commune
2803138,Anvérse,Antwerpen,Antwerpen,Antwerp Province,Flanders,51.21989,4.40346,Commune
2803132,Anway,Anway,Yvoir,Namur Province,Wallonia,50.33333,4.9,Section/lieu-dit
2803130,Anzegem,Anzegem,Anzegem,West Flanders Province,Flanders,50.837,3.47786,Commune
2803130,Anzehem,Anzegem,Anzegem,West Flanders Province,Flanders,50.837,3.47786,Commune
2798743,Anzhi,Engis,Neupré,Liège Province,Wallonia,50.58156,5.39916,Section/lieu-dit
2798743,Anzhis,Engis,Neupré,Liège Province,Wallonia,50.58156,5.39916,Section/lieu-dit
2798743,anzhy,Engis,Neupré,Liège Province,Wallonia,50.58156,5.39916,Section/lieu-dit
2789908,ao ai,Ohey,Ohey,Namur Province,Wallonia,50.4357,5.12375,Commune
2802990,ao bang ri,Aubange,Aubange,Luxembourg Province,Wallonia,49.56652,5.80492,Commune
2802985,Aobel,Aubel,Aubel,Liège Province,Wallonia,50.70189,5.85812,Commune
2802985,ao bo er,Aubel,Aubel,Liège Province,Wallonia,50.70189,5.85812,Commune
2802960,ao de er he mu,Auderghem,Oudergem,Bruxelles-Capitale,Brussels Capital,50.81667,4.43333,Section/lieu-dit
7647765,ao di ni-xin lu wen,Ottignies-Louvain-la-Neuve,Ottignies-Louvain-la-Neuve,Walloon Brabant Province,Wallonia,50.66714,4.55023,Commune
2789869,ao er en,Oudenaarde,Oudenaarde,East Flanders Province,Flanders,50.85168,3.60891,Commune
7647766,ao er pu-ruo shen,Orp-Jauche,Orp-Jauche,Walloon Brabant Province,Wallonia,50.6839,4.94934,Commune
2789403,ao fu pei er te,Overpelt,Overpelt,Limburg Province,Flanders,51.21038,5.41557,Commune
2789413,ao gang lai ze,Overijse,Overijse,Flemish Brabant Province,Flanders,50.77436,4.53461,Commune
2789635,ao lai,Overijse,Overijse,Flemish Brabant Province,Flanders,50.77436,4.53461,Commune
2789771,ao si te er ze lai,Oosterzele,Oosterzele,East Flanders Province,Flanders,50.95261,3.79826,Commune
2789751,ao si te kan pu,Oostkamp,Oostkamp,West Flanders Province,Flanders,51.15432,3.23128,Commune
2795337,ao tong,Hotton,Hotton,Luxembourg Province,Wallonia,50.26742,5.44609,Commune
2802871,Aovelhem,Avelgem,Avelgem,West Flanders Province,Flanders,50.77618,3.44502,Commune
2798573,ao yi peng,Eupen,Eupen,Liège Province,Wallonia,50.6279,6.03647,Commune
2803129,Apostelhuizen,Apostelhuizen,Laarne,East Flanders Province,Flanders,51.05485,3.90093,Section/lieu-dit
2803128,Appelblok,Appelblok,Holsbeek,Flemish Brabant Province,Flanders,50.93333,4.78333,Section/lieu-dit
2803127,Appelboom,Appelboom,Maldegem,East Flanders Province,Flanders,51.17596,3.50549,Section/lieu-dit
2803125,Appelhoek,Appelhoek,Kruishoutem,East Flanders Province,Flanders,50.89564,3.54643,Section/lieu-dit
2803122,Appels,Appels,Dendermonde,East Flanders Province,Flanders,51.03225,4.06141,Section/lieu-dit
2803121,Appels Veir,Appels Veir,Dendermonde,East Flanders Province,Flanders,51.02892,4.04948,Section/lieu-dit
2803119,Appelterre-Eichem,Appelterre-Eichem,Ninove,East Flanders Province,Flanders,50.81597,3.97808,Section/lieu-dit
2803119,Appelterre-Eychem,Appelterre-Eichem,Ninove,East Flanders Province,Flanders,50.81597,3.97808,Section/lieu-dit
2803118,Appelveld,Appelveld,Bilzen,Limburg Province,Flanders,50.9,5.45,Section/lieu-dit
2803116,Araan,Araan,Geetbets,Flemish Brabant Province,Flanders,50.91667,5.13333,Section/lieu-dit
2803115,Arabie,Arabie,Frasnes-lez-Anvaing,Hainaut Province,Wallonia,50.72071,3.62168,Section/lieu-dit
2803116,Araen,Araan,Geetbets,Flemish Brabant Province,Flanders,50.91667,5.13333,Section/lieu-dit
2796012,aran,Herent,Herent,Flemish Brabant Province,Flanders,50.90861,4.67056,Commune
2796009,arantl,Herentals,Herentals,Antwerp Province,Flanders,51.17655,4.83248,Commune
2803114,Arbespine,Arbespine,Jalhay,Liège Province,Wallonia,50.51794,5.90611,Section/lieu-dit
2803110,Arbre,Arbre,Profondeville,Namur Province,Wallonia,50.36611,4.82137,Section/lieu-dit
2803109,Arbre a Limont,Arbre à Limont,Lessines,Hainaut Province,Wallonia,50.69969,3.78111,Section/lieu-dit
2803109,Arbre à Limont,Arbre à Limont,Lessines,Hainaut Province,Wallonia,50.69969,3.78111,Section/lieu-dit
2803107,Arbrefontaine,Arbrefontaine,Lierneux,Liège Province,Wallonia,50.30188,5.83582,Section/lieu-dit
2803106,Arbre Saint-Michel,Arbre Saint-Michel,Flémalle,Liège Province,Wallonia,50.61482,5.43898,Section/lieu-dit
2803105,Arbre Saint-Pierre,Arbre Saint-Pierre,Ellezelles,Hainaut Province,Wallonia,50.72239,3.68271,Section/lieu-dit
2796037,Arbumont,Herbeumont,Herbeumont,Luxembourg Province,Wallonia,49.78086,5.2358,Commune
2796037,Arbûmont,Herbeumont,Herbeumont,Luxembourg Province,Wallonia,49.78086,5.2358,Commune
2796037,arbwmwn,Herbeumont,Herbeumont,Luxembourg Province,Wallonia,49.78086,5.2358,Commune
2803103,Arc-Ainieres,Arc-Ainières,Frasnes-lez-Anvaing,Hainaut Province,Wallonia,50.70151,3.55433,Section/lieu-dit
2803103,Arc-Ainières,Arc-Ainières,Frasnes-lez-Anvaing,Hainaut Province,Wallonia,50.70151,3.55433,Section/lieu-dit
2803098,Archennes,Archennes,Grez-Doiceau,Walloon Brabant Province,Wallonia,50.75261,4.66962,Section/lieu-dit
2792784,Arches,Les Arches,Andenne,Namur Province,Wallonia,50.47268,5.1368,Section/lieu-dit
2795040,Archonwelz,Irchonwelz,Ath,Hainaut Province,Wallonia,50.62066,3.7508,Section/lieu-dit
2803071,Ardencourt,Arloncourt,Bastogne,Luxembourg Province,Wallonia,50.02777,5.8039,Section/lieu-dit
2803097,Ardenelle,Ardenelle,Sombreffe,Namur Province,Wallonia,50.56023,4.62713,Section/lieu-dit
2803096,Ardennes,Ardennes,,,Wallonia,50.16667,5.5,Section/lieu-dit
2803093,Ardevoor,Ardevoor,,,Flanders,50.76155,4.99674,Section/lieu-dit
2803091,Ardooie,Ardooie,Ardooie,West Flanders Province,Flanders,50.9757,3.19736,Commune
2803091,Ardoye,Ardooie,Ardooie,West Flanders Province,Flanders,50.9757,3.19736,Commune
2788298,A Rechauvaux,Rechauvaux,Messancy,Luxembourg Province,Wallonia,49.6,5.75,Section/lieu-dit
2803073,Arel,Arlon,Arlon,Luxembourg Province,Wallonia,49.68333,5.81667,Commune
2799846,Arend,De Arend,Zedelgem,West Flanders Province,Flanders,51.13333,3.16667,Section/lieu-dit
2803083,Arendonck,Arendonk,Arendonk,Antwerp Province,Flanders,51.32267,5.08289,Commune
2803083,Arendonk,Arendonk,Arendonk,Antwerp Province,Flanders,51.32267,5.08289,Commune
2803082,Arendonkse Hoek,Arendonksenhoek,Retie,Antwerp Province,Flanders,51.28333,5.05,Section/lieu-dit
2803082,Arendonksenhoek,Arendonksenhoek,Retie,Antwerp Province,Flanders,51.28333,5.05,Section/lieu-dit
2803079,Argenteau,Hermalle-sous-Argenteau,Oupeye,Liège Province,Wallonia,50.71231,5.67753,Section/lieu-dit
2803077,Arimont,Arimont,Malmédy,Liège Province,Wallonia,50.41957,6.06383,Section/lieu-dit
2803076,Arisdonck,Arisdonk,Waarschoot,East Flanders Province,Flanders,51.14718,3.62605,Section/lieu-dit
2803076,Arisdonk,Arisdonk,Waarschoot,East Flanders Province,Flanders,51.14718,3.62605,Section/lieu-dit
2798666,arkwlyn,Erquelinnes,Erquelinnes,Hainaut Province,Wallonia,50.30688,4.11129,Commune
2803073,arln,Arlon,Arlon,Luxembourg Province,Wallonia,49.68333,5.81667,Commune
2802914,Arlon,Arlon,Arlon,Luxembourg Province,Wallonia,49.68333,5.81667,Commune
2803073,Årlon,Arlon,Arlon,Luxembourg Province,Wallonia,49.68333,5.81667,Commune
2803073,Arlona,Arlon,Arlon,Luxembourg Province,Wallonia,49.68333,5.81667,Commune
2803073,Arlonas,Arlon,Arlon,Luxembourg Province,Wallonia,49.68333,5.81667,Commune
2803071,Arloncourt,Arloncourt,Bastogne,Luxembourg Province,Wallonia,50.02777,5.8039,Section/lieu-dit
2803073,Arloni vald,Arlon,Arlon,Luxembourg Province,Wallonia,49.68333,5.81667,Commune
2803073,arlwn,Arlon,Arlon,Luxembourg Province,Wallonia,49.68333,5.81667,Commune
2803070,Arme Klei,Arme Klei,Brakel,East Flanders Province,Flanders,50.83937,3.72108,Section/lieu-dit
2803069,Arme Leut,Arme Leut,Kortrijk,West Flanders Province,Flanders,50.78333,3.23333,Section/lieu-dit
2803066,Armoede,Armoede,Roeselare,West Flanders Province,Flanders,50.92636,3.17063,Section/lieu-dit
2803064,Arnelle,Arnelle,Incourt,Walloon Brabant Province,Wallonia,50.69379,4.74948,Section/lieu-dit
2803061,Arquennes,Arquennes,Seneffe,Hainaut Province,Wallonia,50.56765,4.27341,Section/lieu-dit
2803429,Arschotas,Aarschot,Aarschot,Flemish Brabant Province,Flanders,50.98715,4.83695,Commune
2803059,Arsimont,Arsimont,Sambreville,Namur Province,Wallonia,50.42859,4.63872,Section/lieu-dit
2803429,Arskhot,Aarschot,Aarschot,Flemish Brabant Province,Flanders,50.98715,4.83695,Commune
2803429,arssht,Aarschot,Aarschot,Flemish Brabant Province,Flanders,50.98715,4.83695,Commune
2795930,arstal,Herstal,Herstal,Liège Province,Wallonia,50.66415,5.62346,Commune
2803058,Artoishoek,Artoishoek,Wervik,West Flanders Province,Flanders,50.83012,3.09943,Section/lieu-dit
2803057,Arton,Arton,Gembloux,Namur Province,Wallonia,50.55,4.75,Section/lieu-dit
2803073,aruron,Arlon,Arlon,Luxembourg Province,Wallonia,49.68333,5.81667,Commune
2803429,arusukoto,Aarschot,Aarschot,Flemish Brabant Province,Flanders,50.98715,4.83695,Commune
2803055,Arville,Arville,Saint-Hubert,Luxembourg Province,Wallonia,50.03203,5.31665,Section/lieu-dit
2798698,arwzh,Érezée,Érezée,Luxembourg Province,Wallonia,50.29292,5.55815,Commune
2803026,a sai nei de,Assenede,Assenede,East Flanders Province,Flanders,51.22598,3.75085,Commune
2803052,Asbeek,Asbeek,,,,50.9,5.66667,Section/lieu-dit
2803049,Asberg,Asberg,Westerlo,Antwerp Province,Flanders,51.08463,4.89299,Section/lieu-dit
2803048,Asbroek,Asbroek,Herselt,Antwerp Province,Flanders,51.06667,4.86667,Section/lieu-dit
2803053,Asch,As,As,Limburg Province,Flanders,51.00755,5.58453,Commune
2803045,Aschhoop,Ashoop,Houthulst,West Flanders Province,Flanders,50.95,2.88333,Section/lieu-dit
2803046,Ascstraat,Ascstraat,Lierde,East Flanders Province,Flanders,50.83333,3.85,Section/lieu-dit
2803033,a se,Asse,Asse,Flemish Brabant Province,Flanders,50.91011,4.19836,Commune
2803026,Asenede,Assenede,Assenede,East Flanders Province,Flanders,51.22598,3.75085,Commune
2803033,aseo,Asse,Asse,Flemish Brabant Province,Flanders,50.91011,4.19836,Commune
2803045,Ashoop,Ashoop,Houthulst,West Flanders Province,Flanders,50.95,2.88333,Section/lieu-dit
2796491,aslt,Hasselt,Hasselt,Limburg Province,Flanders,50.93106,5.33781,Commune
2798636,asnw,Esneux,Esneux,Liège Province,Wallonia,50.53596,5.56775,Commune
2803026,asnwd,Assenede,Assenede,East Flanders Province,Flanders,51.22598,3.75085,Commune
2803042,Aspelaere,Aspelare,Ninove,East Flanders Province,Flanders,50.84189,3.95743,Section/lieu-dit
2803042,Aspelare,Aspelare,Ninove,East Flanders Province,Flanders,50.84189,3.95743,Section/lieu-dit
2803040,Asper,Asper,Gavere,East Flanders Province,Flanders,50.9137,3.65126,Section/lieu-dit
2803039,Aspergem,Aspergem,Wingene,West Flanders Province,Flanders,51.03333,3.18333,Section/lieu-dit
2803039,Asperghem,Aspergem,Wingene,West Flanders Province,Flanders,51.03333,3.18333,Section/lieu-dit
2803038,Aspot,Aspot,Puurs,Antwerp Province,Flanders,51.06667,4.3,Section/lieu-dit
2803037,Asquempont,Asquempont,Ittre,Walloon Brabant Province,Wallonia,50.64162,4.24201,Section/lieu-dit
2803036,Asquilies,Asquillies,Quévy,Hainaut Province,Wallonia,50.4019,3.95808,Section/lieu-dit
2803036,Asquillies,Asquillies,Quévy,Hainaut Province,Wallonia,50.4019,3.95808,Section/lieu-dit
2803033,Assche,Asse,Asse,Flemish Brabant Province,Flanders,50.91011,4.19836,Commune
2803046,Asschestraet,Ascstraat,Lierde,East Flanders Province,Flanders,50.83333,3.85,Section/lieu-dit
2803017,Assche-ter-Heiden,Asse ter Heide,Asse,Flemish Brabant Province,Flanders,50.91744,4.15743,Section/lieu-dit
2783284,Asse,Asse,Asse,Flemish Brabant Province,Flanders,50.91011,4.19836,Commune
2803030,Assebroek,Assebroek,Brugge,West Flanders Province,Flanders,51.19367,3.2623,Section/lieu-dit
2803030,Assebroeke,Assebroek,Brugge,West Flanders Province,Flanders,51.19367,3.2623,Section/lieu-dit
2803030,Assebrouck,Assebroek,Brugge,West Flanders Province,Flanders,51.19367,3.2623,Section/lieu-dit
2803029,Asselkouter,Asselkouter,Merelbeke,East Flanders Province,Flanders,50.94799,3.75437,Section/lieu-dit
2803028,Assels,Assels,Gent,East Flanders Province,Flanders,51.03913,3.67828,Section/lieu-dit
2796491,Asselt,Hasselt,Hasselt,Limburg Province,Flanders,50.93106,5.33781,Commune
2803026,Assenede,Assenede,Assenede,East Flanders Province,Flanders,51.22598,3.75085,Commune
2803026,Assenee,Assenede,Assenede,East Flanders Province,Flanders,51.22598,3.75085,Commune
2803022,Assenois,Assenois,Léglise,Luxembourg Province,Wallonia,49.80244,5.46371,Section/lieu-dit
2803020,Assent,Assent,Bekkevoort,Flemish Brabant Province,Flanders,50.95187,5.01473,Section/lieu-dit
2787242,Assesse,Assesse,Assesse,Namur Province,Wallonia,50.36934,5.02204,Commune
2803046,Assestraat,Ascstraat,Lierde,East Flanders Province,Flanders,50.83333,3.85,Section/lieu-dit
2803017,Asse ter Heide,Asse ter Heide,Asse,Flemish Brabant Province,Flanders,50.91744,4.15743,Section/lieu-dit
2803033,Asso,Asse,Asse,Flemish Brabant Province,Flanders,50.91011,4.19836,Commune
7779033,Ast'er,Hastière,Hastière,Namur Province,Wallonia,50.21658,4.81639,Commune
2803014,Astene,Astene,Deinze,East Flanders Province,Flanders,50.98512,3.56654,Section/lieu-dit
2803013,Astenet,Astenet,Lontzen,Liège Province,Wallonia,50.68813,6.03409,Section/lieu-dit
7779033,Astier,Hastière,Hastière,Namur Province,Wallonia,50.21658,4.81639,Commune
7779033,Astire,Hastière,Hastière,Namur Province,Wallonia,50.21658,4.81639,Commune
2798604,astmpwyy,Estaimpuis,Estaimpuis,Hainaut Province,Wallonia,50.70485,3.26785,Commune
7779033,astyr,Hastière,Hastière,Namur Province,Wallonia,50.21658,4.81639,Commune
2803012,Atembeek,Atembeek,Geraardsbergen,East Flanders Province,Flanders,50.76886,3.91759,Section/lieu-dit
2803012,Atembeke,Atembeek,Geraardsbergen,East Flanders Province,Flanders,50.76886,3.91759,Section/lieu-dit
2803007,Athis,Athis,Honnelles,Hainaut Province,Wallonia,50.36353,3.77449,Section/lieu-dit
2803010,Athum,Ath,Ath,Hainaut Province,Wallonia,50.62937,3.77801,Commune
2803005,Athus,Athus,Aubange,Luxembourg Province,Wallonia,49.56475,5.83736,Section/lieu-dit
2803003,Atrin,Quemanne d'Atrin,Durbuy,Luxembourg Province,Wallonia,50.38078,5.44286,Section/lieu-dit
2803005,Attem,Athus,Aubange,Luxembourg Province,Wallonia,49.56475,5.83736,Section/lieu-dit
2803000,Attenhoven,Attenhoven,Landen,Flemish Brabant Province,Flanders,50.76591,5.09296,Section/lieu-dit
2802998,Attenrode,Attenrode,Glabbeek,Flemish Brabant Province,Flanders,50.87782,4.92438,Section/lieu-dit
2802998,Attenrode-Wever,Attenrode,Glabbeek,Flemish Brabant Province,Flanders,50.87782,4.92438,Section/lieu-dit
2790015,Attert,Attert,Attert,Luxembourg Province,Wallonia,49.75035,5.78634,Commune
2802994,Attre,Attre,Brugelette,Hainaut Province,Wallonia,50.60732,3.83921,Section/lieu-dit
2785389,Atuatuca Tungrorum,Tongeren,Tongeren,Limburg Province,Flanders,50.78054,5.46484,Commune
2802992,Atzerath,Atzerath,Saint-Vith,Liège Province,Wallonia,50.28222,6.22056,Section/lieu-dit
2802849,Auans,Awans,Awans,Liège Province,Wallonia,50.66774,5.46329,Commune
2802990,Aubange,Aubange,Aubange,Luxembourg Province,Wallonia,49.56652,5.80492,Commune
2802988,Aubechies,Aubechies,Beloeil,Hainaut Province,Wallonia,50.57419,3.67647,Section/lieu-dit
2802987,Aubecq,Aubecq,Flobecq,Hainaut Province,Wallonia,50.73948,3.77104,Section/lieu-dit
2802985,Aubel,Aubel,Aubel,Liège Province,Wallonia,50.70189,5.85812,Commune
2802984,Au Beulet,Au Beulet,Bastogne,Luxembourg Province,Wallonia,49.98733,5.83566,Section/lieu-dit
2802981,Aublain,Aublain,Couvin,Namur Province,Wallonia,50.06644,4.4096,Section/lieu-dit
2802979,Au Blanc Pignon,Au Blanc Pignon,Braine-le-Comte,Hainaut Province,Wallonia,50.58333,4.21667,Section/lieu-dit
2802976,Au Boland,Au Boland,Braives,Liège Province,Wallonia,50.61375,5.11798,Section/lieu-dit
2802974,Aubroek,Aubroek,Hamme,East Flanders Province,Flanders,51.05418,4.16342,Section/lieu-dit
2802973,Auby,Auby,Bertrix,Luxembourg Province,Wallonia,49.8156,5.1826,Section/lieu-dit
2802973,Auby-sur-Semois,Auby,Bertrix,Luxembourg Province,Wallonia,49.8156,5.1826,Section/lieu-dit
2802971,Au Caillou,Au Caillou,Bertogne,Luxembourg Province,Wallonia,50.07962,5.66315,Section/lieu-dit
2802970,Au Chabet,Au Chabet,Vaux-sur-Sûre,Luxembourg Province,Wallonia,49.95,5.58333,Section/lieu-dit
2802968,Au Chenay,Au Chenay,Oupeye,Liège Province,Wallonia,50.71667,5.63333,Section/lieu-dit
2802967,Au Cheny du Mont,Au Cheny du Mont,Saint-Hubert,Luxembourg Province,Wallonia,50.03948,5.29685,Section/lieu-dit
2802966,Au Cheval Dot,Au Cheval Dot,Saint-Hubert,Luxembourg Province,Wallonia,50.06667,5.28333,Section/lieu-dit
2802965,Au Coucou,Au Coucou,Nassogne,Luxembourg Province,Wallonia,50.1,5.3,Section/lieu-dit
2789551,Audegem,Oudegem,Dendermonde,East Flanders Province,Flanders,51.01017,4.06195,Section/lieu-dit
2802964,Au dela de l'Eau,Au delà de l'Eau,Nassogne,Luxembourg Province,Wallonia,50.16667,5.41667,Section/lieu-dit
2802964,Au delà de l'Eau,Au delà de l'Eau,Nassogne,Luxembourg Province,Wallonia,50.16667,5.41667,Section/lieu-dit
2789526,Audenaeken,Oudenaken,Sint-Pieters-Leeuw,Flemish Brabant Province,Flanders,50.7798,4.19785,Section/lieu-dit
2802962,Audenarde,Oudenaarde,Oudenaarde,East Flanders Province,Flanders,50.85168,3.60891,Commune
2789512,Audenhove,Sint-Goriks-Oudenhove,Zottegem,East Flanders Province,Flanders,50.85278,3.78612,Section/lieu-dit
2786601,Audenhove-Sainte-Marie,Sint-Maria-Oudenhove,Zottegem,East Flanders Province,Flanders,50.83364,3.79556,Section/lieu-dit
2786692,Audenhove-Saint-Gery,Sint-Goriks-Oudenhove,Zottegem,East Flanders Province,Flanders,50.85278,3.78612,Section/lieu-dit
2802960,Audergem,Auderghem,Oudergem,Bruxelles-Capitale,Brussels Capital,50.81667,4.43333,Section/lieu-dit
2802960,Auderghem,Auderghem,Oudergem,Bruxelles-Capitale,Brussels Capital,50.81667,4.43333,Section/lieu-dit
2802960,Auderghem/Oudergem,Auderghem,Oudergem,Bruxelles-Capitale,Brussels Capital,50.81667,4.43333,Section/lieu-dit
2802960,Auderghem - Oudergem,Auderghem,Oudergem,Bruxelles-Capitale,Brussels Capital,50.81667,4.43333,Section/lieu-dit
2802960,Auderghem-Oudergem,Auderghem,Oudergem,Bruxelles-Capitale,Brussels Capital,50.81667,4.43333,Section/lieu-dit
2802959,Au dessus des Bois,Au dessus des Bois,La Louvière,Hainaut Province,Wallonia,50.48333,4.2,Section/lieu-dit
2802958,Au Dieu des Gardes,Au Dieu des Gardes,Florenville,Luxembourg Province,Wallonia,49.66259,5.33247,Section/lieu-dit
2802957,Audion,Audion,Arrondissement of Tournai,Hainaut Province,Wallonia,50.56667,3.36667,Section/lieu-dit
2802955,Audrange,Aldringen,Burg-Reuland,Liège Province,Wallonia,50.22111,6.02278,Section/lieu-dit
2802953,Audregnies,Audregnies,Quiévrain,Hainaut Province,Wallonia,50.38324,3.72128,Section/lieu-dit
2802951,Audrimont,Audrimont,Lasne,Walloon Brabant Province,Wallonia,50.69771,4.47744,Section/lieu-dit
2802950,Auel,Auel,Burg-Reuland,Liège Province,Wallonia,50.21141,6.17258,Section/lieu-dit
2802949,Auf Beescht,Auf Beescht,Fauvillers,Luxembourg Province,Wallonia,49.88333,5.76667,Section/lieu-dit
2802948,Auf Berg,Auf Berg,Fauvillers,Luxembourg Province,Wallonia,49.88333,5.75,Section/lieu-dit
2802949,Auf Boescht,Auf Beescht,Fauvillers,Luxembourg Province,Wallonia,49.88333,5.76667,Section/lieu-dit
2802944,Auf der Wolsch,Auf der Wolsch,Martelange,Luxembourg Province,Wallonia,49.85,5.73333,Section/lieu-dit
2802943,Au Ferrage,Au Ferrage,Libramont-Chevigny,Luxembourg Province,Wallonia,49.91667,5.33333,Section/lieu-dit
2802942,Auffe,Ave-et-Auffe,Rochefort,Namur Province,Wallonia,50.11298,5.14237,Section/lieu-dit
2802939,Au Gris Han,Au Gris Han,Tenneville,Luxembourg Province,Wallonia,50.09245,5.48381,Section/lieu-dit
2802938,Au Gros Chene,Au Gros Chêné,Rendeux,Luxembourg Province,Wallonia,50.21209,5.46288,Section/lieu-dit
2802938,Au Gros Chêné,Au Gros Chêné,Rendeux,Luxembourg Province,Wallonia,50.21209,5.46288,Section/lieu-dit
2802937,Auguenne,Auguenne,Frasnes-lez-Anvaing,Hainaut Province,Wallonia,50.7,3.61667,Section/lieu-dit
2802934,Au Hestre,Au Hestré,Vielsalm,Luxembourg Province,Wallonia,50.23333,5.78333,Section/lieu-dit
2802934,Au Hestré,Au Hestré,Vielsalm,Luxembourg Province,Wallonia,50.23333,5.78333,Section/lieu-dit
2802926,Aulmoit,Aulnoit,Flobecq,Hainaut Province,Wallonia,50.75,3.76667,Section/lieu-dit
2802929,Aulnois,Aulnois,Quévy,Hainaut Province,Wallonia,50.34009,3.90409,Section/lieu-dit
2802926,Aulnoit,Aulnoit,Flobecq,Hainaut Province,Wallonia,50.75,3.76667,Section/lieu-dit
2802925,Au Menhir,Au Minire,Wellin,Luxembourg Province,Wallonia,50.06667,5.1,Section/lieu-dit
2802925,Au Minire,Au Minire,Wellin,Luxembourg Province,Wallonia,50.06667,5.1,Section/lieu-dit
2802926,Aunoit,Aulnoit,Flobecq,Hainaut Province,Wallonia,50.75,3.76667,Section/lieu-dit
2802923,Au Pape,Au Pape,Profondeville,Namur Province,Wallonia,50.36667,4.76667,Section/lieu-dit
2802922,Au Pont,Comblain-au-Pont,Comblain-au-Pont,Liège Province,Wallonia,50.47488,5.57711,Commune
2802919,Au Relay,Au Rolay,Vielsalm,Luxembourg Province,Wallonia,50.23333,5.8,Section/lieu-dit
2802921,Aurheide,Aurheide,Aarschot,Flemish Brabant Province,Flanders,50.96667,4.83333,Section/lieu-dit
2802920,Aurodenberg,Aurodenberg,Aarschot,Flemish Brabant Province,Flanders,51.00744,4.83776,Section/lieu-dit
2802919,Au Rolay,Au Rolay,Vielsalm,Luxembourg Province,Wallonia,50.23333,5.8,Section/lieu-dit
2802914,Autelbas,Autelbas,Arlon,Luxembourg Province,Wallonia,49.64813,5.86799,Section/lieu-dit
2802913,Autelhaut,Autelhaut,Arlon,Luxembourg Province,Wallonia,49.6519,5.84395,Section/lieu-dit
2789457,Autgaerde,Outgaarden,Hoegaarden,Flemish Brabant Province,Flanders,50.76672,4.91929,Section/lieu-dit
2802912,Au Thier,Au Thier,Trooz,Liège Province,Wallonia,50.57234,5.67461,Section/lieu-dit
2792515,Au Tomboi,Le Tombois,Libin,Luxembourg Province,Wallonia,49.93333,5.26667,Section/lieu-dit
2792515,Au Tombois,Le Tombois,Libin,Luxembourg Province,Wallonia,49.93333,5.26667,Section/lieu-dit
2802910,Autre-Eglise,Autre-Église,Ramillies,Walloon Brabant Province,Wallonia,50.66921,4.90381,Section/lieu-dit
2802910,Autre-Église,Autre-Église,Ramillies,Walloon Brabant Province,Wallonia,50.66921,4.90381,Section/lieu-dit
2802907,Autreppe,Autreppe,Honnelles,Hainaut Province,Wallonia,50.34825,3.73329,Section/lieu-dit
2802906,Au Trie du Burnot,Au Trie du Burnot,Yvoir,Namur Province,Wallonia,50.35,4.86667,Section/lieu-dit
2802904,Au Trou Sauvage,Au Trou Sauvage,Burdinne,Liège Province,Wallonia,50.58333,5.08333,Section/lieu-dit
2789448,Autryve,Outrijve,Avelgem,West Flanders Province,Flanders,50.75773,3.42964,Section/lieu-dit
2802902,Auvelais,Auvelais,Sambreville,Namur Province,Wallonia,50.4504,4.63228,Section/lieu-dit
2802901,Au Voyez,Au Voyez,La Roche-en-Ardenne,Luxembourg Province,Wallonia,50.11667,5.6,Section/lieu-dit
2789446,Auwegem,Ouwegem,Zingem,East Flanders Province,Flanders,50.91231,3.59978,Section/lieu-dit
2802899,Aux Aibricuets,Aux Aibriquets,Marche-en-Famenne,Luxembourg Province,Wallonia,50.18333,5.41667,Section/lieu-dit
2802899,Aux Aibriquets,Aux Aibriquets,Marche-en-Famenne,Luxembourg Province,Wallonia,50.18333,5.41667,Section/lieu-dit
2802898,Aux Alloises,Aux Alloises,Léglise,Luxembourg Province,Wallonia,49.88333,5.61667,Section/lieu-dit
2802897,Aux Bruyeres,Aux Bruyères,Rendeux,Luxembourg Province,Wallonia,50.22085,5.45176,Section/lieu-dit
2802897,Aux Bruyères,Aux Bruyères,Rendeux,Luxembourg Province,Wallonia,50.22085,5.45176,Section/lieu-dit
2802896,Aux Communes,Aux Communes,Visé,Liège Province,Wallonia,50.68721,5.67856,Section/lieu-dit
2802895,Aux Croix,Aux Croix,Crisnée,Liège Province,Wallonia,50.71224,5.39975,Section/lieu-dit
2802894,Aux Deux Hetres,Aux Deux Hêtres,,Luxembourg Province,Wallonia,50.06723,5.85919,Section/lieu-dit
2802894,Aux Deux Hêtres,Aux Deux Hêtres,,Luxembourg Province,Wallonia,50.06723,5.85919,Section/lieu-dit
2802893,Aux Fagnes,Aux Fagnes,Wellin,Luxembourg Province,Wallonia,50.07907,5.07195,Section/lieu-dit
2802892,Aux Fontaines,Aux Fontaines,Engis,Liège Province,Wallonia,50.5521,5.38179,Section/lieu-dit
2802891,Aux Forges,Aux Forges,Amay,Liège Province,Wallonia,50.53333,5.33333,Section/lieu-dit
2802890,Aux Fourchons,Aux Fourchons,Fauvillers,Luxembourg Province,Wallonia,49.91396,5.70221,Section/lieu-dit
2802889,Aux Granges,Aux Granges,Engis,Liège Province,Wallonia,50.55756,5.40736,Section/lieu-dit
2802887,Aux Grosses Pierres,Aux Grosses Pierres,Grâce-Hollogne,Liège Province,Wallonia,50.65,5.48333,Section/lieu-dit
2802886,Aux Houx,Aux Houx,Engis,Liège Province,Wallonia,50.54977,5.40041,Section/lieu-dit
2799560,Aux Peupliers,De Populieren,,Liège Province,Wallonia,50.71667,5.08333,Section/lieu-dit
2787643,Aux Rouges Fosses,Rouges Fosses,Saint-Hubert,Luxembourg Province,Wallonia,50,5.38333,Section/lieu-dit
2802885,Aux Sept Chemins,Aux Sept Chemins,Bastogne,Luxembourg Province,Wallonia,49.97026,5.77432,Section/lieu-dit
2802884,Aux Tachenires,Aux Tachenires,Libin,Luxembourg Province,Wallonia,49.97339,5.31476,Section/lieu-dit
2802883,Aux Tournants,Aux Tournants,Hannut,Liège Province,Wallonia,50.7,5.01667,Section/lieu-dit
2802882,Aux Trois Saules,Aux Trois Saules,Marchin,Liège Province,Wallonia,50.45,5.23333,Section/lieu-dit
2802880,Aux Zabrees,Aux Zabrées,Hannut,Liège Province,Wallonia,50.71435,5.05928,Section/lieu-dit
2802880,Aux Zabrées,Aux Zabrées,Hannut,Liège Province,Wallonia,50.71435,5.05928,Section/lieu-dit
2802879,Aux Zazefagnes,Aux Zazefagnes,Lierneux,Liège Province,Wallonia,50.31935,5.86663,Section/lieu-dit
2802849,Avan,Awans,Awans,Liège Province,Wallonia,50.66774,5.46329,Commune
2802873,Avecappelle,Avekapelle,Veurne,West Flanders Province,Flanders,51.06623,2.73268,Section/lieu-dit
2802875,Ave-et-Auffe,Ave-et-Auffe,Rochefort,Namur Province,Wallonia,50.11298,5.14237,Section/lieu-dit
2802873,Avekapelle,Avekapelle,Veurne,West Flanders Province,Flanders,51.06623,2.73268,Section/lieu-dit
2796369,Avelanzh,Havelange,Havelange,Namur Province,Wallonia,50.38931,5.23816,Commune
2802871,Avelgem,Avelgem,Avelgem,West Flanders Province,Flanders,50.77618,3.44502,Commune
2802871,Avelghem,Avelgem,Avelgem,West Flanders Province,Flanders,50.77618,3.44502,Commune
2802868,Avennes,Avennes,Braives,Liège Province,Wallonia,50.6287,5.11687,Section/lieu-dit
2802865,Averbode,Averbode,Scherpenheuvel-Zichem,Flemish Brabant Province,Flanders,51.02887,4.98067,Section/lieu-dit
2802863,Averbodeheide,Averbodeheide,Tessenderlo,Limburg Province,Flanders,51.05,5,Section/lieu-dit
2802862,Averechten,Averechten,Heist-op-den-Berg,Antwerp Province,Flanders,51.1,4.71667,Section/lieu-dit
2802862,Averegten,Averechten,Heist-op-den-Berg,Antwerp Province,Flanders,51.1,4.71667,Section/lieu-dit
2802861,Avermaat,Avermaat,Zele,East Flanders Province,Flanders,51.04897,4.03783,Section/lieu-dit
2802859,Avernas-le-Bauduin,Avernas-le-Bauduin Airport,Lincent,Liège Province,Wallonia,50.71102,5.05154,Section/lieu-dit
2802858,Aveschoot,Aveschoot,Kaprijke,East Flanders Province,Flanders,51.18995,3.62909,Section/lieu-dit
2802856,Avin,Avin,Hannut,Liège Province,Wallonia,50.62235,5.06925,Section/lieu-dit
2802855,Avister,Avister,Esneux,Liège Province,Wallonia,50.5552,5.57227,Section/lieu-dit
2796369,Avlanzh,Havelange,Havelange,Namur Province,Wallonia,50.38931,5.23816,Commune
2802854,Avoortbrug,Avoortsbrug,Dessel,Antwerp Province,Flanders,51.24805,5.07329,Section/lieu-dit
2802854,Avoortsbrug,Avoortsbrug,Dessel,Antwerp Province,Flanders,51.24805,5.07329,Section/lieu-dit
2802852,Awagne,Awagne,Dinant,Namur Province,Wallonia,50.29543,4.9484,Section/lieu-dit
2802849,awan,Awans,Awans,Liège Province,Wallonia,50.66774,5.46329,Commune
2802849,Awan,Awans,Awans,Liège Province,Wallonia,50.66774,5.46329,Commune
2802849,a wang,Awans,Awans,Liège Province,Wallonia,50.66774,5.46329,Commune
2789584,Awans,Awans,Awans,Liège Province,Wallonia,50.66774,5.46329,Commune
2802990,awbanzh,Aubange,Aubange,Luxembourg Province,Wallonia,49.56652,5.80492,Commune
2802960,awdrgm,Auderghem,Oudergem,Bruxelles-Capitale,Brussels Capital,50.81667,4.43333,Section/lieu-dit
2802847,Awenne,Awenne,Saint-Hubert,Luxembourg Province,Wallonia,50.07405,5.30471,Section/lieu-dit
2789479,awfh,Ouffet,Ouffet,Liège Province,Wallonia,50.4387,5.4657,Commune
2795322,awflyz,Houffalize,Houffalize,Luxembourg Province,Wallonia,50.13235,5.78962,Commune
2795398,awgstrtan,Hoogstraten,Hoogstraten,Antwerp Province,Flanders,51.40029,4.76034,Commune
2802845,Awirs,Awirs,Flémalle,Liège Province,Wallonia,50.60014,5.40627,Section/lieu-dit
2785123,awkl,Uccle,Ukkel,Bruxelles-Capitale,Brussels Capital,50.80225,4.33943,Section/lieu-dit
2796369,awlanzh,Havelange,Havelange,Namur Province,Wallonia,50.38931,5.23816,Commune
2789869,awln,Olne,Olne,Liège Province,Wallonia,50.58994,5.74662,Commune
2798573,awpan,Eupen,Eupen,Liège Province,Wallonia,50.6279,6.03647,Commune
2789471,awpyy,Oupeye,Oupeye,Liège Province,Wallonia,50.71184,5.6468,Commune
2789403,awrplt,Overpelt,Overpelt,Limburg Province,Flanders,51.21038,5.41557,Commune
7647766,awrp-zhwsh,Orp-Jauche,Orp-Jauche,Walloon Brabant Province,Wallonia,50.6839,4.94934,Commune
2789413,awryzhz,Overijse,Overijse,Flemish Brabant Province,Flanders,50.77436,4.53461,Commune
7669241,awsdan-zwldh,Heusden-Zolder,Heusden-Zolder,Limburg Province,Flanders,51.03729,5.29653,Commune
7669232,awtlan-alktwran,Houthalen-Helchteren,Houthalen-Helchteren,Limburg Province,Flanders,51.03216,5.37849,Commune
2795337,awtwn,Hotton,Hotton,Luxembourg Province,Wallonia,50.26742,5.44609,Commune
2784092,awyanz,Wanze,Wanze,Liège Province,Wallonia,50.53907,5.20846,Commune
2795703,awygrdan,Hoegaarden,Hoegaarden,Flemish Brabant Province,Flanders,50.7756,4.88952,Commune
2789908,awyh,Houyet,Houyet,Namur Province,Wallonia,50.18619,5.00762,Commune
2783870,awylkwnryt,Welkenraedt,Welkenraedt,Liège Province,Wallonia,50.6605,5.97034,Commune
2783801,awystrlw,Westerlo,Westerlo,Antwerp Province,Flanders,51.09049,4.91544,Commune
2783979,awytrmyl-bwatsfwr,Watermael-Boitsfort,Watermael-Boitsfort,Bruxelles-Capitale,Brussels Capital,50.80154,4.41436,Commune
2783763,awytwran,Wetteren,Wetteren,East Flanders Province,Flanders,51.00526,3.88341,Commune
2795113,awyy,Huy,Arrondissement of Huy,Liège Province,Wallonia,50.51894,5.23284,Section/lieu-dit
2789751,awztkam,Oostkamp,Oostkamp,West Flanders Province,Flanders,51.15432,3.23128,Commune
2789771,awztrzl,Oosterzele,Oosterzele,East Flanders Province,Flanders,50.95261,3.79826,Commune
2803308,Axelwalle,Akselwal,Oudenaarde,East Flanders Province,Flanders,50.89658,3.63682,Section/lieu-dit
2803307,Axpoele,Akspoel,Ruiselede,West Flanders Province,Flanders,51.05835,3.41357,Section/lieu-dit
2802839,Ayeneux,Ayeneux,Soumagne,Liège Province,Wallonia,50.60797,5.71589,Section/lieu-dit
2795011,ayksl,Ixelles,Ixelles,Bruxelles-Capitale,Brussels Capital,50.83333,4.36667,Commune
2795017,aytr,Ittre,Ittre,Walloon Brabant Province,Wallonia,50.64396,4.26476,Commune
2798578,aytrbyk,Etterbeek,Etterbeek,Bruxelles-Capitale,Brussels Capital,50.83272,4.38835,Commune
2798578,aytrbyyk,Etterbeek,Etterbeek,Bruxelles-Capitale,Brussels Capital,50.83272,4.38835,Commune
2786349,Aywaille,Aywaille,Aywaille,Liège Province,Wallonia,50.47411,5.67684,Commune
2802837,ayway,Aywaille,Aywaille,Liège Province,Wallonia,50.47411,5.67684,Commune
2798551,aywrzhm,Evergem,Evergem,East Flanders Province,Flanders,51.10529,3.704,Commune
2783385,aywwar,Yvoir,Yvoir,Namur Province,Wallonia,50.3279,4.88059,Commune
2795009,ayzzhm,Izegem,Izegem,West Flanders Province,Flanders,50.91396,3.21378,Commune
2802835,Azebois,Azebois,Pont-à-Celles,Hainaut Province,Wallonia,50.48037,4.41603,Section/lieu-dit
2802834,Azette,Azette,Bastogne,Luxembourg Province,Wallonia,50.03333,5.78333,Section/lieu-dit
2802830,Baaigem,Baaigem,Gavere,East Flanders Province,Flanders,50.932,3.72026,Section/lieu-dit
2802827,Baal,Baal,Tremelo,Flemish Brabant Province,Flanders,50.9955,4.75317,Section/lieu-dit
2802826,Baalberg,Baalberg,Laakdal,Antwerp Province,Flanders,51.08333,5.06667,Section/lieu-dit
2802824,Baalheide,Baalheide,Tessenderlo,Limburg Province,Flanders,51.06667,5.05,Section/lieu-dit
2802823,Baandries,Baandries,Ninove,East Flanders Province,Flanders,50.84849,3.9907,Section/lieu-dit
2802823,Baandriesch,Baandries,Ninove,East Flanders Province,Flanders,50.84849,3.9907,Section/lieu-dit
2802820,Baardegem,Baardegem,Aalst,East Flanders Province,Flanders,50.9548,4.14203,Section/lieu-dit
2802819,Baarle,Baarle-Hertog,Baarle-Hertog,Antwerp Province,Flanders,51.40504,4.89226,Commune
2802816,Baarle-Chertonk,Baarle-Hertog,Baarle-Hertog,Antwerp Province,Flanders,51.40504,4.89226,Commune
2802816,Baarle-Hertog,Baarle-Hertog,Baarle-Hertog,Antwerp Province,Flanders,51.40504,4.89226,Commune
2802815,Baarleveld,Baarleveld,Gent,East Flanders Province,Flanders,51.04525,3.60624,Section/lieu-dit
2802815,Baarlevelde,Baarleveld,Gent,East Flanders Province,Flanders,51.04525,3.60624,Section/lieu-dit
2802814,Baarstraat,Baarstraat,Sint-Gillis-Waas,East Flanders Province,Flanders,51.2,4.13333,Section/lieu-dit
2799845,Baas,De Baas,Sint-Niklaas,East Flanders Province,Flanders,51.15,4.03333,Section/lieu-dit
2802812,Baasrode,Baasrode,Dendermonde,East Flanders Province,Flanders,51.03805,4.1546,Section/lieu-dit
2802811,Baassels,Baassels,Knesselare,East Flanders Province,Flanders,51.11667,3.4,Section/lieu-dit
2802810,Babbelaar,Babbelaar,Aalst,East Flanders Province,Flanders,50.97502,4.02921,Section/lieu-dit
2802808,Babelom,Babelom,Hoegaarden,Flemish Brabant Province,Flanders,50.79966,4.83915,Section/lieu-dit
2802804,Bacara,Bacara,Seneffe,Hainaut Province,Wallonia,50.55,4.23333,Section/lieu-dit
2802803,Bac du Prince,Bac du Prince,Hastière,Namur Province,Wallonia,50.16667,4.81667,Section/lieu-dit
2793791,Bach,Labach,Plombières,Liège Province,Wallonia,50.71634,5.91342,Section/lieu-dit
2802800,Bachte,Bachte-Maria-Leerne,Deinze,East Flanders Province,Flanders,51.01132,3.58145,Section/lieu-dit
2802798,Bachte-Maria-Leerne,Bachte-Maria-Leerne,Deinze,East Flanders Province,Flanders,51.01132,3.58145,Section/lieu-dit
2802797,Baclain,Baclain,Gouvy,Luxembourg Province,Wallonia,50.19494,5.86571,Section/lieu-dit
2802796,Baconfoy,Baconfoy,Tenneville,Luxembourg Province,Wallonia,50.08617,5.53385,Section/lieu-dit
2802794,Baconveau,Baconveau,Virton,Luxembourg Province,Wallonia,49.56667,5.6,Section/lieu-dit
2802791,Baddebroek,Baddebroek,,Luxembourg Province,Wallonia,51.11667,4.41667,Section/lieu-dit
2802790,Badon,Badon,Froidchapelle,Hainaut Province,Wallonia,50.19688,4.37852,Section/lieu-dit
2802789,Baegnee,Baegnée,Braives,Liège Province,Wallonia,50.63026,5.1424,Section/lieu-dit
2802789,Baegnée,Baegnée,Braives,Liège Province,Wallonia,50.63026,5.1424,Section/lieu-dit
2802756,Baekenbosch,Bakenbos,Overijse,Flemish Brabant Province,Flanders,50.75,4.5,Section/lieu-dit
2802827,Bael,Baal,Tremelo,Flemish Brabant Province,Flanders,50.9955,4.75317,Section/lieu-dit
2802826,Baelberg,Baalberg,Laakdal,Antwerp Province,Flanders,51.08333,5.06667,Section/lieu-dit
2802746,Baelegem,Balegem,Oosterzele,East Flanders Province,Flanders,50.9257,3.79076,Section/lieu-dit
2791356,Baelen,Balen,Balen,Antwerp Province,Flanders,51.16837,5.17027,Commune
2802824,Baelheide,Baalheide,Tessenderlo,Limburg Province,Flanders,51.06667,5.05,Section/lieu-dit
2802825,Bael Heide,Baalheide,Tremelo,Flemish Brabant Province,Flanders,51,4.73333,Section/lieu-dit
2801922,baengsyu,Binche,Binche,Hainaut Province,Wallonia,50.41155,4.16469,Commune
2802820,Baerdegem,Baardegem,Aalst,East Flanders Province,Flanders,50.9548,4.14203,Section/lieu-dit
2802820,Baerdeghem,Baardegem,Aalst,East Flanders Province,Flanders,50.9548,4.14203,Section/lieu-dit
2802816,Baerle-Duc,Baarle-Hertog,Baarle-Hertog,Antwerp Province,Flanders,51.40504,4.89226,Commune
2802816,ba er lei-he er tuo he,Baarle-Hertog,Baarle-Hertog,Antwerp Province,Flanders,51.40504,4.89226,Commune
2802815,Baerlevelde,Baarleveld,Gent,East Flanders Province,Flanders,51.04525,3.60624,Section/lieu-dit
2802812,Baesrode,Baasrode,Dendermonde,East Flanders Province,Flanders,51.03805,4.1546,Section/lieu-dit
2802811,Baessels,Baassels,Knesselare,East Flanders Province,Flanders,51.11667,3.4,Section/lieu-dit
2802537,Baevegem,Bavegem,Sint-Lievens-Houtem,East Flanders Province,Flanders,50.94435,3.86497,Section/lieu-dit
2802830,Baeygem,Baaigem,Gavere,East Flanders Province,Flanders,50.932,3.72026,Section/lieu-dit
2802783,Bagimont,Bagimont,Vresse-sur-Semois,Namur Province,Wallonia,49.82411,4.8751,Section/lieu-dit
2802782,Baileu,Baileu,Cerfontaine,Namur Province,Wallonia,50.21348,4.41948,Section/lieu-dit
2802780,Baileux,Baileux,Chimay,Hainaut Province,Wallonia,50.02877,4.37533,Section/lieu-dit
2802777,Bailievre,Bailièvre,Chimay,Hainaut Province,Wallonia,50.06937,4.23875,Section/lieu-dit
2802777,Bailièvre,Bailièvre,Chimay,Hainaut Province,Wallonia,50.06937,4.23875,Section/lieu-dit
2802773,Baillamont,Baillamont,Bièvre,Namur Province,Wallonia,49.89983,5.02639,Section/lieu-dit
2802771,Bailleul,Bailleul,Estaimpuis,Hainaut Province,Wallonia,50.66909,3.31927,Section/lieu-dit
2802770,Bailli,Bailli,Frasnes-lez-Anvaing,Hainaut Province,Wallonia,50.71548,3.60188,Section/lieu-dit
2802766,Baillonville,Baillonville,Somme-Leuze,Namur Province,Wallonia,50.29042,5.33875,Section/lieu-dit
2802764,Baimont,Baimont,Havelange,Namur Province,Wallonia,50.32697,5.2751,Section/lieu-dit
2802135,bai ni sha he,Bernissart,Bernissart,Hainaut Province,Wallonia,50.4746,3.64961,Commune
2802761,Baisieux,Baisieux,Quiévrain,Hainaut Province,Wallonia,50.3874,3.69553,Section/lieu-dit
2802759,Baisy-Thy,Baisy-Thy,Genappe,Walloon Brabant Province,Wallonia,50.59708,4.47598,Section/lieu-dit
2793787,Baive,La Baive,Éghezée,Namur Province,Wallonia,50.57467,4.81022,Section/lieu-dit
2802758,Bakel,Bakel,Halen,Limburg Province,Flanders,50.98938,5.12693,Section/lieu-dit
2802756,Bakenbos,Bakenbos,Overijse,Flemish Brabant Province,Flanders,50.75,4.5,Section/lieu-dit
2802754,Bakergem,Bakergem,Denderleeuw,East Flanders Province,Flanders,50.87286,4.05808,Section/lieu-dit
11238165,Bakese,Bakèse,Virton,Luxembourg Province,Wallonia,49.58881,5.61868,Section/lieu-dit
11238165,Bakèse,Bakèse,Virton,Luxembourg Province,Wallonia,49.58881,5.61868,Section/lieu-dit
2802749,Balatre,Balâtre,Jemeppe-sur-Sambre,Namur Province,Wallonia,50.49967,4.64353,Section/lieu-dit
2802749,Balâtre,Balâtre,Jemeppe-sur-Sambre,Namur Province,Wallonia,50.49967,4.64353,Section/lieu-dit
2802748,Balderij,Balderij,Turnhout,Antwerp Province,Flanders,51.26667,4.93333,Section/lieu-dit
2802746,Balegem,Balegem,Oosterzele,East Flanders Province,Flanders,50.9257,3.79076,Section/lieu-dit
2784068,baleheom,Waregem,Waregem,West Flanders Province,Flanders,50.88898,3.42756,Commune
2802745,Balei,Balei,Sint-Lievens-Houtem,East Flanders Province,Flanders,50.91643,3.87297,Section/lieu-dit
2802743,Balen,Balen,Balen,Antwerp Province,Flanders,51.16837,5.17027,Commune
2802743,Balen-sur-Nethe,Balen,Balen,Antwerp Province,Flanders,51.16837,5.17027,Commune
2802816,baleulleoheleutoheu,Baarle-Hertog,Baarle-Hertog,Antwerp Province,Flanders,51.40504,4.89226,Commune
2802741,Balgerhoek,Balgerhoeke,Eeklo,East Flanders Province,Flanders,51.20232,3.52364,Section/lieu-dit
2802741,Balgerhoeke,Balgerhoeke,Eeklo,East Flanders Province,Flanders,51.20232,3.52364,Section/lieu-dit
2789354,ba li se er,Paliseul,Paliseul,Luxembourg Province,Wallonia,49.90395,5.13537,Commune
2802740,Balkenbrug,Balkenbrug,Wachtebeke,East Flanders Province,Flanders,51.18333,3.85,Section/lieu-dit
2802739,Balkerstraat,Balkestraat,Kortenberg,Flemish Brabant Province,Flanders,50.92674,4.58915,Section/lieu-dit
2802739,Balkestraat,Balkestraat,Kortenberg,Flemish Brabant Province,Flanders,50.92674,4.58915,Section/lieu-dit
2802738,Ballaar,Ballaar,Scherpenheuvel-Zichem,Flemish Brabant Province,Flanders,50.96046,4.98074,Section/lieu-dit
2802738,Ballaer,Ballaar,Scherpenheuvel-Zichem,Flemish Brabant Province,Flanders,50.96046,4.98074,Section/lieu-dit
2802737,Balleweier,Balleweier,Zonhoven,Limburg Province,Flanders,50.99145,5.39566,Section/lieu-dit
2792769,Ballons,Les Ballons,,West Flanders Province,Flanders,50.71667,3.2,Section/lieu-dit
7290696,Balmoral,Balmoral,Spa,Liège Province,Wallonia,50.50355,5.88429,Section/lieu-dit
2802736,Baltenshoek,Baltenshoek,Kruishoutem,East Flanders Province,Flanders,50.88333,3.56667,Section/lieu-dit
2802735,Baltert,Baltert,Attert,Luxembourg Province,Wallonia,49.74071,5.80646,Section/lieu-dit
2802743,ba lun,Balen,Balen,Antwerp Province,Flanders,51.16837,5.17027,Commune
2802734,Bambois,Bambois,Fosses-la-Ville,Namur Province,Wallonia,50.3731,4.70071,Section/lieu-dit
2802733,Bambrick,Bambrik,Hasselt,Limburg Province,Flanders,50.95243,5.29531,Section/lieu-dit
2802733,Bambrik,Bambrik,Hasselt,Limburg Province,Flanders,50.95243,5.29531,Section/lieu-dit
2802731,Bambrugge,Bambrugge,Erpe-Mere,East Flanders Province,Flanders,50.92115,3.92993,Section/lieu-dit
2802720,Banbuche,Banbuche,Stavelot,Liège Province,Wallonia,50.35,6.01667,Section/lieu-dit
2802719,Ban d'Alle,Ban d'Alle,Bouillon,Luxembourg Province,Wallonia,49.80426,4.97028,Section/lieu-dit
2802716,Bande,Bande,Nassogne,Luxembourg Province,Wallonia,50.16636,5.41442,Section/lieu-dit
2802714,Ban de Laviot,Ban de Laviot,Bouillon,Luxembourg Province,Wallonia,49.83333,5,Section/lieu-dit
2802713,Banes-Sarts,Banet Sarts,Daverdisse,Luxembourg Province,Wallonia,50.01667,5.11667,Section/lieu-dit
2802713,Banès-Sârts,Banet Sarts,Daverdisse,Luxembourg Province,Wallonia,50.01667,5.11667,Section/lieu-dit
2802713,Banet Sarts,Banet Sarts,Daverdisse,Luxembourg Province,Wallonia,50.01667,5.11667,Section/lieu-dit
2802712,Baneu,Baneu,Houffalize,Luxembourg Province,Wallonia,50.06667,5.83333,Section/lieu-dit
2802707,Banneux,Banneux,Sprimont,Liège Province,Wallonia,50.54101,5.73919,Section/lieu-dit
2802705,Banoyard,Banoyard,Theux,Liège Province,Wallonia,50.47098,5.79775,Section/lieu-dit
2802704,Bansbroek,Bansbroek,Kortenaken,Flemish Brabant Province,Flanders,50.91667,4.98333,Section/lieu-dit
2801922,banshu,Binche,Binche,Hainaut Province,Wallonia,50.41155,4.16469,Commune
2802703,Bansions,Bansions,Jalhay,Liège Province,Wallonia,50.53186,5.8941,Section/lieu-dit
2802702,Banterlez,Banterlez,Genappe,Walloon Brabant Province,Wallonia,50.58362,4.45194,Section/lieu-dit
2792761,Barakken,Les Baraques,Menen,West Flanders Province,Flanders,50.78847,3.12859,Section/lieu-dit
2802700,Baranzy,Baranzy,Musson,Luxembourg Province,Wallonia,49.55565,5.68452,Section/lieu-dit
2793785,Baraque,Baraque Michel,Waimes,Liège Province,Wallonia,50.51901,6.06244,Section/lieu-dit
2802697,Baraque de Fraiture,Baraque de Fraiture,Vielsalm,Luxembourg Province,Wallonia,50.25013,5.73673,Section/lieu-dit
2802696,Baraque Dumont,Baraque Dumont,Gouvy,Luxembourg Province,Wallonia,50.15519,5.9425,Section/lieu-dit
2802695,Baraque Dupont,Baraque Dupont,Gouvy,Luxembourg Province,Wallonia,50.14585,5.92503,Section/lieu-dit
2802694,Baraque Grember,Baraque Grember,Gouvy,Luxembourg Province,Wallonia,50.15,5.95,Section/lieu-dit
2802689,Barbencon,Barbençon,Beaumont,Hainaut Province,Wallonia,50.22316,4.28338,Section/lieu-dit
2802689,Barbençon,Barbençon,Beaumont,Hainaut Province,Wallonia,50.22316,4.28338,Section/lieu-dit
2802688,Barberie,Barberie,Frasnes-lez-Anvaing,Hainaut Province,Wallonia,50.64741,3.55644,Section/lieu-dit
2802684,Barbinfosse,Barbinfosse,Frasnes-lez-Anvaing,Hainaut Province,Wallonia,50.68333,3.66667,Section/lieu-dit
2802683,Barbotte,Barbotte,Villers-le-Bouillet,Liège Province,Wallonia,50.56667,5.28333,Section/lieu-dit
2802682,Barcene,Barcène,Ciney,Namur Province,Wallonia,50.27909,5.09938,Section/lieu-dit
2802682,Barcène,Barcène,Ciney,Namur Province,Wallonia,50.27909,5.09938,Section/lieu-dit
2802680,Barchon,Barchon,Blégny,Liège Province,Wallonia,50.66894,5.7001,Section/lieu-dit
2802677,Barenberg,Barenberg,Diest,Flemish Brabant Province,Flanders,50.99206,5.09159,Section/lieu-dit
2802700,Barenzy,Baranzy,Musson,Luxembourg Province,Wallonia,49.55565,5.68452,Section/lieu-dit
2802676,Barges,Barges,Arrondissement of Tournai,Hainaut Province,Wallonia,50.58333,3.38333,Section/lieu-dit
2802674,Barisoeul,Barisoeul,Leuze-en-Hainaut,Hainaut Province,Wallonia,50.58333,3.56667,Section/lieu-dit
2802816,Barle-Gertog,Baarle-Hertog,Baarle-Hertog,Antwerp Province,Flanders,51.40504,4.89226,Commune
2802816,Barle Khertog,Baarle-Hertog,Baarle-Hertog,Antwerp Province,Flanders,51.40504,4.89226,Commune
2802816,Barle-Khertog,Baarle-Hertog,Baarle-Hertog,Antwerp Province,Flanders,51.40504,4.89226,Commune
2802673,Barnich,Barnich,Arlon,Luxembourg Province,Wallonia,49.64985,5.86999,Section/lieu-dit
2802671,Baronheid,Baronheid,Stavelot,Liège Province,Wallonia,50.4794,5.96525,Section/lieu-dit
2802671,Baronheld,Baronheid,Stavelot,Liège Province,Wallonia,50.4794,5.96525,Section/lieu-dit
2802670,Baronsheide,Baronsheide,Holsbeek,Flemish Brabant Province,Flanders,50.93333,4.83333,Section/lieu-dit
2802668,Baronville,Baronville,Beauraing,Namur Province,Wallonia,50.12708,4.94309,Section/lieu-dit
2802666,Barouche,Barouche,Écaussinnes,Hainaut Province,Wallonia,50.56667,4.21667,Section/lieu-dit
6957883,Barriere d'Ecaussines,Barrière d’Écaussinnes,Braine-le-Comte,Hainaut Province,Wallonia,50.59142,4.13507,Section/lieu-dit
6957883,Barriere d'Ecaussinnes,Barrière d’Écaussinnes,Braine-le-Comte,Hainaut Province,Wallonia,50.59142,4.13507,Section/lieu-dit
2802663,Barriere d'Haubreux,Barrière d'Haubreux,Erquelinnes,Hainaut Province,Wallonia,50.33281,4.06777,Section/lieu-dit
2802663,Barrière d'Haubreux,Barrière d'Haubreux,Erquelinnes,Hainaut Province,Wallonia,50.33281,4.06777,Section/lieu-dit
2802664,Barriere de Champlon,Barrière de Champlon,Tellin,Luxembourg Province,Wallonia,50.08333,5.3,Section/lieu-dit
2802664,Barrière de Champlon,Barrière de Champlon,Tellin,Luxembourg Province,Wallonia,50.08333,5.3,Section/lieu-dit
6957883,Barrière d’Écaussines,Barrière d’Écaussinnes,Braine-le-Comte,Hainaut Province,Wallonia,50.59142,4.13507,Section/lieu-dit
6957883,Barrière d’Écaussinnes,Barrière d’Écaussinnes,Braine-le-Comte,Hainaut Province,Wallonia,50.59142,4.13507,Section/lieu-dit
2802661,Barry,Barry,Arrondissement of Tournai,Hainaut Province,Wallonia,50.58771,3.54272,Section/lieu-dit
2802659,Barsdamhoek,Barsdamhoek,Kortemark,West Flanders Province,Flanders,51.01667,2.98333,Section/lieu-dit
2802658,Barse,Vierset-Barse,Modave,Liège Province,Wallonia,50.48373,5.29816,Section/lieu-dit
2802657,Barsenalle,Barsenalle,Ciney,Namur Province,Wallonia,50.27372,5.09062,Section/lieu-dit
2802656,Barsy,Barsy,Havelange,Namur Province,Wallonia,50.38532,5.15226,Section/lieu-dit
2802816,barure=herutofu,Baarle-Hertog,Baarle-Hertog,Antwerp Province,Flanders,51.40504,4.89226,Commune
2802653,Barvaux,Barvaux,Durbuy,Luxembourg Province,Wallonia,50.34832,5.49058,Section/lieu-dit
2802651,Barvaux-Condroz,Barvaux-Condroz,Havelange,Namur Province,Wallonia,50.32974,5.26219,Section/lieu-dit
2802650,Barvoetschenhoek,Barvoetsenhoek,Wichelen,East Flanders Province,Flanders,50.98333,3.98333,Section/lieu-dit
2802650,Barvoetsenhoek,Barvoetsenhoek,Wichelen,East Flanders Province,Flanders,50.98333,3.98333,Section/lieu-dit
2802649,Barzin,Barzin,Wellin,Luxembourg Province,Wallonia,50.0716,5.08019,Section/lieu-dit
2802606,ba sang ri,Bassenge,Bassenge,Liège Province,Wallonia,50.75883,5.60989,Commune
2802606,Basanzh,Bassenge,Bassenge,Liège Province,Wallonia,50.75883,5.60989,Commune
2802647,Basbeek,Basbeek,Gent,East Flanders Province,Flanders,51.05812,3.66114,Section/lieu-dit
2802646,Bas Bois,Bas Bois,Soumagne,Liège Province,Wallonia,50.61667,5.75,Section/lieu-dit
2802645,Bas Bonlez,Bas Bonlez,Chaumont-Gistoux,Walloon Brabant Province,Wallonia,50.71081,4.69305,Section/lieu-dit
2784831,BasCoron,BasCoron,Péruwelz,Hainaut Province,Wallonia,50.50147,3.59862,Section/lieu-dit
6957882,Bas Coron,Bas Coron,Beloeil,Hainaut Province,Wallonia,50.53333,3.63333,Section/lieu-dit
2802643,Bas Corot,Bas Corot,Tellin,Luxembourg Province,Wallonia,50.08333,5.3,Section/lieu-dit
2802642,Bascoup,Bascoup,Morlanwelz,Hainaut Province,Wallonia,50.46667,4.26667,Section/lieu-dit
2802641,Bas du Village,Bas du Village,Chimay,Hainaut Province,Wallonia,50.02634,4.32801,Section/lieu-dit
2802639,Basecles,Basècles,Beloeil,Hainaut Province,Wallonia,50.52549,3.64944,Section/lieu-dit
2802639,Basècles,Basècles,Beloeil,Hainaut Province,Wallonia,50.52549,3.64944,Section/lieu-dit
2802529,Basel,Bazel,Kruibeke,East Flanders Province,Flanders,51.14741,4.30129,Section/lieu-dit
2802637,Bas Forest,Bas Forest,Frasnes-lez-Anvaing,Hainaut Province,Wallonia,50.66667,3.55,Section/lieu-dit
2802576,Basheers,Batsheers,Heers,Limburg Province,Flanders,50.73863,5.28099,Section/lieu-dit
2802636,Bas Laveu,Bas Laveu,Seraing,Liège Province,Wallonia,50.61269,5.48945,Section/lieu-dit
2802635,Bas Masville,Bas Masville,Nivelles,Walloon Brabant Province,Wallonia,50.60596,4.25926,Section/lieu-dit
2802633,Bas-Oha,Bas-Oha,Wanze,Liège Province,Wallonia,50.52652,5.19216,Section/lieu-dit
2802632,Bas Preau,Bas Préau,Rumes,Hainaut Province,Wallonia,50.52373,3.30314,Section/lieu-dit
2802632,Bas Préau,Bas Préau,Rumes,Hainaut Province,Wallonia,50.52373,3.30314,Section/lieu-dit
2802631,Bas Ransbeek,Bas Ransbeek,Lasne,Walloon Brabant Province,Wallonia,50.7088,4.45766,Section/lieu-dit
2802630,Bas Rejet,Bas Rejet,Mont-de-l'Enclus,Hainaut Province,Wallonia,50.73418,3.49272,Section/lieu-dit
2802606,Bassange,Bassenge,Bassenge,Liège Province,Wallonia,50.75883,5.60989,Commune
2802606,Bassanzh,Bassenge,Bassenge,Liège Province,Wallonia,50.75883,5.60989,Commune
2802629,Bas-Sart,Bas-Sart,Fosses-la-Ville,Namur Province,Wallonia,50.37461,4.59395,Section/lieu-dit
2802628,Basse Arche,Basse Arche,Gesves,Namur Province,Wallonia,50.43333,5.08333,Section/lieu-dit
2802627,Basse Awirs,Basse Awirs,Flémalle,Liège Province,Wallonia,50.58653,5.41524,Section/lieu-dit
2802625,Basse-Bodeux,Basse-Bodeux,Trois-Ponts,Liège Province,Wallonia,50.35773,5.82773,Section/lieu-dit
2802645,Basse-Bonlez,Bas Bonlez,Chaumont-Gistoux,Walloon Brabant Province,Wallonia,50.71081,4.69305,Section/lieu-dit
2802624,Basse Bruyere,Basse Bruyère,Ittre,Walloon Brabant Province,Wallonia,50.63533,4.20499,Section/lieu-dit
2802624,Basse Bruyère,Basse Bruyère,Ittre,Walloon Brabant Province,Wallonia,50.63533,4.20499,Section/lieu-dit
2802622,Basse Chenetre,Basse Chenêtre,Blégny,Liège Province,Wallonia,50.7,5.73333,Section/lieu-dit
2802622,Basse Chenêtre,Basse Chenêtre,Blégny,Liège Province,Wallonia,50.7,5.73333,Section/lieu-dit
2802622,Basse-Chenette,Basse Chenêtre,Blégny,Liège Province,Wallonia,50.7,5.73333,Section/lieu-dit
2802620,Bassee,Bassée,Charleroi,Hainaut Province,Wallonia,50.43258,4.39882,Section/lieu-dit
2802620,Bassée,Bassée,Charleroi,Hainaut Province,Wallonia,50.43258,4.39882,Section/lieu-dit
2802619,Basse Fauquez,Basse Fauquez,Ittre,Walloon Brabant Province,Wallonia,50.62433,4.24979,Section/lieu-dit
2802618,Basse Flandre,Basse Flandre,Wervik,West Flanders Province,Flanders,50.78333,3.08333,Section/lieu-dit
6957881,Basse Gage,Basse Gage,Arrondissement of Soignies,Hainaut Province,Wallonia,50.55,4.01667,Section/lieu-dit
2802615,Basse Hermalle,Basse Hermalle,Visé,Liège Province,Wallonia,50.73369,5.68577,Section/lieu-dit
2802614,Basse Heuval,Basse Heuval,Villers-la-Ville,Walloon Brabant Province,Wallonia,50.59036,4.54976,Section/lieu-dit
2802612,Basse Houssiere,Basse Houssière,Braine-le-Comte,Hainaut Province,Wallonia,50.61667,4.16667,Section/lieu-dit
2802612,Basse Houssière,Basse Houssière,Braine-le-Comte,Hainaut Province,Wallonia,50.61667,4.16667,Section/lieu-dit
2802591,Basseije,Bassije,Heuvelland,West Flanders Province,Flanders,50.79322,2.8469,Section/lieu-dit
2802611,Basseilles,Basseilles,Tenneville,Luxembourg Province,Wallonia,50.08333,5.46667,Section/lieu-dit
2802610,Basse Lasne,Basse Lasne,Lasne,Walloon Brabant Province,Wallonia,50.69503,4.49218,Section/lieu-dit
2783458,Bassenge,Bassenge,Bassenge,Liège Province,Wallonia,50.75883,5.60989,Commune
2802604,Basse Noucelle,Basse Noucelle,Braine-le-Château,Walloon Brabant Province,Wallonia,50.68333,4.31667,Section/lieu-dit
2802604,Basse-Noucelles,Basse Noucelle,Braine-le-Château,Walloon Brabant Province,Wallonia,50.68333,4.31667,Section/lieu-dit
2802603,Basse-Plaine,Basse-Plaine,Celles,Hainaut Province,Wallonia,50.71131,3.4353,Section/lieu-dit
2802631,Basse-Ransbeche,Bas Ransbeek,Lasne,Walloon Brabant Province,Wallonia,50.7088,4.45766,Section/lieu-dit
2802631,Basse-Ransbêche,Bas Ransbeek,Lasne,Walloon Brabant Province,Wallonia,50.7088,4.45766,Section/lieu-dit
2788347,Basse Ransy,Ransy,Liège,Liège Province,Wallonia,50.61667,5.63333,Section/lieu-dit
2787848,Basse-Roisseleux,Roisseleux,Thimister-Clermont,Liège Province,Wallonia,50.66882,5.84272,Section/lieu-dit
2802602,Basse Roux Miroir,Basse Roux Miroir,Incourt,Walloon Brabant Province,Wallonia,50.72474,4.75878,Section/lieu-dit
2802598,Basse Tribomont,Basse Tribomont,Pepinster,Liège Province,Wallonia,50.59623,5.81464,Section/lieu-dit
2802596,Bassevelde,Bassevelde,Assenede,East Flanders Province,Flanders,51.23103,3.67798,Section/lieu-dit
2802593,Basse Wanchie,Basse Wanchie,Herbeumont,Luxembourg Province,Wallonia,49.8,5.33333,Section/lieu-dit
2802592,Basse Wavre,Basse Wavre,Wavre,Walloon Brabant Province,Wallonia,50.72249,4.6261,Section/lieu-dit
2802591,Basseye,Bassije,Heuvelland,West Flanders Province,Flanders,50.79322,2.8469,Section/lieu-dit
2802591,Bassije,Bassije,Heuvelland,West Flanders Province,Flanders,50.79322,2.8469,Section/lieu-dit
2802589,Bassilly,Bassilly,Silly,Hainaut Province,Wallonia,50.67634,3.93388,Section/lieu-dit
2802587,Bassines,Bassines,Havelange,Namur Province,Wallonia,50.37394,5.34199,Section/lieu-dit
2802586,Bas Slins,Bas Slins,Bassenge,Liège Province,Wallonia,50.75,5.56667,Section/lieu-dit
2802585,Bastelaar,Bastelaar,Lochristi,East Flanders Province,Flanders,51.09497,3.8602,Section/lieu-dit
2784072,Bastogne,Bastogne,Bastogne,Luxembourg Province,Wallonia,50.00347,5.71844,Commune
2802581,Bas Vinave,Bas Vinave,Villers-le-Bouillet,Liège Province,Wallonia,50.61287,5.22284,Section/lieu-dit
2802579,Bas-Warneton,Bas-Warneton,Comines-Warneton,Hainaut Province,Wallonia,50.75937,2.95996,Section/lieu-dit
2802770,Bath,Bailli,Frasnes-lez-Anvaing,Hainaut Province,Wallonia,50.71548,3.60188,Section/lieu-dit
2802578,Batria,Batria,Nivelles,Walloon Brabant Province,Wallonia,50.61667,4.36667,Section/lieu-dit
2802576,Batsheers,Batsheers,Heers,Limburg Province,Flanders,50.73863,5.28099,Section/lieu-dit
2802575,Battefer,Battefer,Cerfontaine,Namur Province,Wallonia,50.23303,4.42206,Section/lieu-dit
2802574,Battel,Battel,Mechelen,Antwerp Province,Flanders,51.04223,4.44568,Section/lieu-dit
2802573,Battenbroeck,Battenbroek,Mechelen,Antwerp Province,Flanders,51.07055,4.43448,Section/lieu-dit
2802573,Battenbroek,Battenbroek,Mechelen,Antwerp Province,Flanders,51.07055,4.43448,Section/lieu-dit
2802570,Battice,Battice,Herve,Liège Province,Wallonia,50.64734,5.82104,Section/lieu-dit
2802568,Battincourt,Battincourt,Aubange,Luxembourg Province,Wallonia,49.58333,5.76667,Section/lieu-dit
2802565,Bauche,Bauche,Yvoir,Namur Province,Wallonia,50.33571,4.92827,Section/lieu-dit
2802560,Baudecet,Baudeset,Gembloux,Namur Province,Wallonia,50.59705,4.71191,Section/lieu-dit
2802564,Baudelo,Baudelo,Tielt,West Flanders Province,Flanders,51,3.43333,Section/lieu-dit
2802564,Baudeloo,Baudelo,Tielt,West Flanders Province,Flanders,51,3.43333,Section/lieu-dit
2802563,Baudemont,Baudemont,Ittre,Walloon Brabant Province,Wallonia,50.63602,4.24493,Section/lieu-dit
2801295,Baudenghien,Boudenghien,Flobecq,Hainaut Province,Wallonia,50.75,3.7,Section/lieu-dit
2802560,Baudeset,Baudeset,Gembloux,Namur Province,Wallonia,50.59705,4.71191,Section/lieu-dit
2802557,Baudour,Baudour,Saint-Ghislain,Hainaut Province,Wallonia,50.48296,3.8332,Section/lieu-dit
2802555,Baudoux,Baudoux,Pont-à-Celles,Hainaut Province,Wallonia,50.50022,4.38535,Section/lieu-dit
2802554,Baudrihaye,Baudrihaye,Olne,Liège Province,Wallonia,50.6,5.73333,Section/lieu-dit
2802552,Bauffe,Bauffe,Lens,Hainaut Province,Wallonia,50.56977,3.85345,Section/lieu-dit
2802551,Baugnez,Baugnez,Malmédy,Liège Province,Wallonia,50.40457,6.0671,Section/lieu-dit
2802549,Baugnies,Baugnies,Péruwelz,Hainaut Province,Wallonia,50.56034,3.55202,Section/lieu-dit
2802547,Baulers,Baulers,Nivelles,Walloon Brabant Province,Wallonia,50.61331,4.35282,Section/lieu-dit
2802544,Baume,Baume,La Louvière,Hainaut Province,Wallonia,50.47186,4.20547,Section/lieu-dit
2802543,Baureux,Baureux,Frasnes-lez-Anvaing,Hainaut Province,Wallonia,50.70683,3.52994,Section/lieu-dit
2802491,Baurieux,Beaurieux,Mont-Saint-Guibert,Walloon Brabant Province,Wallonia,50.64274,4.60186,Section/lieu-dit
2802542,Bautenshoek,Bautenshoek,Sint-Niklaas,East Flanders Province,Flanders,51.20388,4.20014,Section/lieu-dit
2801215,Bautersem,Boutersem,Boutersem,Flemish Brabant Province,Flanders,50.83511,4.8345,Commune
2802541,Bautershoven,Bautershoven,Sint-Truiden,Limburg Province,Flanders,50.82059,5.22398,Section/lieu-dit
2801208,Bautschoot Keerken,Boutschoot Keerken,Lokeren,East Flanders Province,Flanders,51.14455,3.9498,Section/lieu-dit
2802539,Bauwens Kauter,Bauwenskouter,Herzele,East Flanders Province,Flanders,50.85,3.86667,Section/lieu-dit
2802539,Bauwenskouter,Bauwenskouter,Herzele,East Flanders Province,Flanders,50.85,3.86667,Section/lieu-dit
2802537,Bavegem,Bavegem,Sint-Lievens-Houtem,East Flanders Province,Flanders,50.94435,3.86497,Section/lieu-dit
2802536,Bavegemberg,Bavegemberg,Sint-Lievens-Houtem,East Flanders Province,Flanders,50.95,3.88333,Section/lieu-dit
2802535,Bavegemknok,Bavegemknok,Zwevegem,West Flanders Province,Flanders,50.76099,3.38026,Section/lieu-dit
2802534,Baverijck,Baverijk,Waasmunster,East Flanders Province,Flanders,51.13495,4.06375,Section/lieu-dit
2802534,Baverijk,Baverijk,Waasmunster,East Flanders Province,Flanders,51.13495,4.06375,Section/lieu-dit
2802532,Bavichove,Bavikhove,Harelbeke,West Flanders Province,Flanders,50.87532,3.31062,Section/lieu-dit
2802532,Bavikhove,Bavikhove,Harelbeke,West Flanders Province,Flanders,50.87532,3.31062,Section/lieu-dit
2802531,Baya,Baya,Ohey,Namur Province,Wallonia,50.4635,5.19499,Section/lieu-dit
2802529,Bazel,Bazel,Kruibeke,East Flanders Province,Flanders,51.14741,4.30129,Section/lieu-dit
2802521,Beaufaux,Beaufaux,Ellezelles,Hainaut Province,Wallonia,50.74884,3.67069,Section/lieu-dit
2802518,Beaufays,Beaufays,Chaudfontaine,Liège Province,Wallonia,50.55884,5.63881,Section/lieu-dit
2802517,Beaulette,Beaulette,Héron,Liège Province,Wallonia,50.55928,5.11386,Section/lieu-dit
2802516,Beaulieu,Beaulieu,Tenneville,Luxembourg Province,Wallonia,50.11853,5.56888,Section/lieu-dit
2802514,Beauloup,Beauloup,Stoumont,Liège Province,Wallonia,50.38333,5.81667,Section/lieu-dit
2785549,Beaumont,Beaumont,Beaumont,Hainaut Province,Wallonia,50.23699,4.23926,Commune
2802503,Beau Plateau,Beau Plateau,Sainte-Ode,Luxembourg Province,Wallonia,50,5.53333,Section/lieu-dit
2783589,Beauraing,Beauraing,Beauraing,Namur Province,Wallonia,50.11042,4.95554,Commune
2802495,Beauregard,Beauregard,,Hainaut Province,Wallonia,50.35773,4.09206,Section/lieu-dit
2802494,Beau Repaire,Beau Repaire,Arrondissement of Soignies,Hainaut Province,Wallonia,50.61444,4.05507,Section/lieu-dit
2802493,Beaurieu,Beaurieu,Chimay,Hainaut Province,Wallonia,50.05,4.26667,Section/lieu-dit
2802490,Beaurieux,Beaurieux,Mont-Saint-Guibert,Walloon Brabant Province,Wallonia,50.64274,4.60186,Section/lieu-dit
2802488,Beausaint,Beausaint,La Roche-en-Ardenne,Luxembourg Province,Wallonia,50.16807,5.5486,Section/lieu-dit
2802487,Beausaint lez La Roche,Beausaint lez La Roche,La Roche-en-Ardenne,Luxembourg Province,Wallonia,50.18333,5.56667,Section/lieu-dit
2802485,Beausoir,Beausoir,Frasnes-lez-Anvaing,Hainaut Province,Wallonia,50.68333,3.68333,Section/lieu-dit
2785346,Beauvechain,Beauvechain,Beauvechain,Walloon Brabant Province,Wallonia,50.78195,4.7718,Commune
2802482,Beau Voisinage,Beau Voisinage,,West Flanders Province,Flanders,50.71667,3.21667,Section/lieu-dit
8063831,Beauvoorde,Beauvoorde,Veurne,West Flanders Province,Flanders,51.0147,2.65058,Section/lieu-dit
2802480,Beauwelz,Beauwelz,Momignies,Hainaut Province,Wallonia,50.0143,4.15678,Section/lieu-dit
2802478,Bebange,Bebange,Messancy,Luxembourg Province,Wallonia,49.60847,5.78231,Section/lieu-dit
2802031,bebeleon,Beveren,Beveren,East Flanders Province,Flanders,51.21187,4.25633,Commune
2802477,Becco,Becco,Theux,Liège Province,Wallonia,50.50303,5.78806,Section/lieu-dit
2802098,Becelaere,Beselare,Zonnebeke,West Flanders Province,Flanders,50.84812,3.02449,Section/lieu-dit
2802476,Bech,Bèche,Vielsalm,Luxembourg Province,Wallonia,50.26389,5.91917,Section/lieu-dit
2802476,Beche,Bèche,Vielsalm,Luxembourg Province,Wallonia,50.26389,5.91917,Section/lieu-dit
